stop_id,stop_code,stop_name,stop_desc,stop_lat,stop_lon,zone_id,stop_url,location_type,parent_station,stop_timezone,wheelchair_boarding
1980SN12619A,,"Southampton, Hanover Buildings [CU]",,50.903095366,-1.403140944,,,,,,
1980SN12532A,,"Above Bar [AC]",,50.905746243,-1.404529276,,,,,,
1980SN12524D,,"Cenotaph [HD]",,50.910001583,-1.40490171,,,,,,
1980SN120522,,"Giddy Bridge",,50.911849634,-1.404038939,,,,,,
1980SN120535,,"Law Courts",,50.914045908,-1.402252165,,,,,,
1980SN120405,,"The Avenue, Archers Road",,50.915872404,-1.402892241,,,,,,
1980SN120401,,"The Avenue, Stag Gates",,50.918917978,-1.404090956,,,,,,
1980SN120398,,"Northlands Road",,50.922232788,-1.405186804,,,,,,
1980SN121052,,"Oakmount Avenue",,50.927100358,-1.405708133,,,,,,
1980SN121053,,"Avenue Subway",,50.929565504,-1.405947093,,,,,,
1980SN120118,,"Bassett Crossroads",,50.937005892,-1.406663546,,,,,,
1980SN120117,,"Bassett Crescent",,50.939084021,-1.406836363,,,,,,
1980SN121007,,"Holly Hill",,50.942876773,-1.406432287,,,,,,
1980SN121006,,"Ridgemount Avenue",,50.945723714,-1.405712802,,,,,,
1980SN121008,,"Saxholm Way",,50.949190359,-1.404842965,,,,,,
1980HA121017,,"Bassett, Chilworth Roundabout",,50.95217376,-1.404434736,,,,,,
1900HA100779,,"Birch Road",,50.956305463,-1.401733762,,,,,,
1900HA030002,,"Chandlers Ford, Asda",,50.968085131,-1.391214955,,,,,,
1900HA030107,,"Leigh Road",,50.975531861,-1.387969834,,,,,,
1900HA030013,,"Hut Farm Place",,50.97968114,-1.385265792,,,,,,
1900HA030015,,"Chandlers Ford Rail Station",,50.983220417,-1.382854269,,,,,,
1900HAA19662,,"Kings Road",,50.98602466,-1.379198451,,,,,,
1900HA030067,,"Fryern Hill, Halfway Inn",,50.987824914,-1.374472867,,,,,,
1900HA030071,,"Peverells Wood Avenue",,50.989944598,-1.370654455,,,,,,
1900HA030181,,"Thornden School",,50.994472098,-1.364808046,,,,,,
1900HA030180,,"Nuffield Hospital",,50.996922283,-1.360642107,,,,,,
1900HA110433,,"Otterbourne Hill Green",,50.99908572,-1.355054624,,,,,,
1900HA110430,,"Otterbourne, White Horse",,51.004771644,-1.347450539,,,,,,
1900HA110428,,"Oakwood Avenue",,51.010120287,-1.342315325,,,,,,
1900HA110427,,Sparrowgrove,,51.012127669,-1.341089551,,,,,,
1900HA110424,,"Highways Road",,51.015944494,-1.338626242,,,,,,
1900HA110423,,"South Down",,51.019251089,-1.336583258,,,,,,
1900HA110420,,"Shawford Down",,51.02392861,-1.332110708,,,,,,
1900HA110419,,"Compton, Compton Street",,51.027974416,-1.33198129,,,,,,
1900HAA91084,,"Bushfield Roundabout",,51.03715204,-1.328226744,,,,,,
1900HA110041,,"Grange Road",,51.04511756,-1.32481641,,,,,,
1900HA110043,,"St Cross, Bell Inn",,51.048921148,-1.323234671,,,,,,
1900HA110044,,"Barnes Close",,51.051154999,-1.32233186,,,,,,
1900HA110046,,"Ranelagh Road",,51.054814187,-1.320666212,,,,,,
1900HA110049,,"Romans Road",,51.05749618,-1.319514029,,,,,,
1900HA110050,,"St Thomas Church",,51.061595822,-1.317827185,,,,,,
1900HA110100,,"Westgate [Pb]",,51.064352191,-1.320184171,,,,,,
1900HA110111,,"Winchester Rail Station [Qb]",,51.067122759,-1.318802073,,,,,,
1900HA110103,,"City Road [Rd]",,51.066281802,-1.316459644,,,,,,
1900HA110102,,"North Walls",,51.06531083,-1.31189294,,,,,,
1900HA110057,,"Winchester Bus Station [A]",,51.061974397,-1.310315603,,,,,,
1900HA110113,,"The Arc",,51.065154193,-1.315848322,,,,,,
1900HA030179,,"Nuffield Hospital",,50.997054273,-1.360113042,,,,,,
1900HA030072,,"Thornden School",,50.993211463,-1.366150393,,,,,,
1900HA030066,,"Peverells Wood Avenue",,50.989237933,-1.371347894,,,,,,
1900HA030068,,"Fryern Hill, Halfway Inn",,50.987282513,-1.375619918,,,,,,
1900HA030069,,"Kings Road",,50.985363355,-1.379976576,,,,,,
1900HA030014,,"Chandlers Ford Rail Station",,50.9826732,-1.383103697,,,,,,
1900HA030012,,"Hut Farm Place",,50.979572789,-1.385181755,,,,,,
1900HA030108,,"Leigh Road",,50.974292936,-1.388356432,,,,,,
1900HA030001,,"Chandlers Ford, Asda",,50.967841908,-1.391132686,,,,,,
1900HA100778,,"Birch Road",,50.956832333,-1.401015113,,,,,,
1900HA100780,,"Bassett, Chilworth Roundabout",,50.95407928,-1.40250265,,,,,,
1980SN121009,,"Saxholm Way",,50.949907965,-1.40449215,,,,,,
1980SN121005,,"Bassett Wood Road",,50.948138678,-1.404927564,,,,,,
1980SN121010,,"Ridgemount Avenue",,50.945561137,-1.405572531,,,,,,
1980SN120116,,"Holly Hill",,50.941699275,-1.406532672,,,,,,
1980SN120115,,"Bassett Crescent",,50.939254144,-1.406691876,,,,,,
1980SN120119,,"Bassett Crossroads",,50.936825043,-1.406466604,,,,,,
1980SN121054,,"Avenue Subway",,50.929969414,-1.405799655,,,,,,
1980SN121055,,"Oakmount Avenue",,50.927387519,-1.405590646,,,,,,
1980SN120400,,"The Avenue, Northlands Road",,50.921160509,-1.404759438,,,,,,
1980SN120404,,"Stag Gates",,50.918053523,-1.403173042,,,,,,
1980SN120406,,"The Avenue, Archers Road",,50.916409371,-1.402387484,,,,,,
1980SN120536,,"Law Courts",,50.913664956,-1.402052778,,,,,,
1980SNA40402,,"Giddy Bridge",,50.910998306,-1.404618755,,,,,,
1980SN120525,,"Cenotaph [HA]",,50.909416168,-1.404724269,,,,,,
1980HAA13584,,"Civic Centre [AI]",,50.906808139,-1.406449989,,,,,,
1980SN121031,,"ASDA & Marlands [AK]",,50.905638469,-1.406322635,,,,,,
1980HAA13583,,"Southampton, Westquay [BP]",,50.903612182,-1.40573687,,,,,,
1900HA110066,,"Marks & Spencer",,51.062452712,-1.312135078,,,,,,
1900HA110112,,"Jewry Street",,51.063143352,-1.316434495,,,,,,
1900HA110051,,"St Thomas Church",,51.061370951,-1.317816219,,,,,,
1900HA110048,,"Romans Road",,51.057271226,-1.319488788,,,,,,
1900HA110047,,"Ranelagh Road",,51.055513121,-1.320242216,,,,,,
1900HA110045,,"Kingsgate Road",,51.052426998,-1.321485813,,,,,,
1900HA110042,,"St Cross, Bell Inn",,51.048408796,-1.323270667,,,,,,
1900HA110040,,"Grange Road",,51.04459638,-1.324881043,,,,,,
1900HA110038,,"Bushfield Roundabout",,51.037187432,-1.328126396,,,,,,
1900HAA91085,,"South Park & Ride",,51.035051045,-1.328784794,,,,,,
1900HA110418,,"Compton, Compton Street",,51.028107904,-1.331736959,,,,,,
1900HA110421,,"Shawford Down",,51.023829214,-1.332026586,,,,,,
1900HA110422,,"South Down",,51.020340614,-1.335256053,,,,,,
1900HA110425,,"Highways Road",,51.015083315,-1.338994877,,,,,,
1900HA110426,,Sparrowgrove,,51.011848607,-1.341036485,,,,,,
1900HA110429,,"Oakwood Avenue",,51.008818505,-1.342690069,,,,,,
1900HA110431,,"Otterbourne, White Horse",,51.003984355,-1.348174188,,,,,,
1900HA110432,,"Otterbourne Hill Green",,50.999084069,-1.354755382,,,,,,
1980SN12531B,,"Above Bar [AD]",,50.905989096,-1.404540402,,,,,,
1980SN120403,,"Stag Gates",,50.918814783,-1.403252933,,,,,,
1980SN120407,,"Cedar Road",,50.919133645,-1.400545876,,,,,,
1980SN120413,,"Spring Crescent",,50.921517808,-1.395535824,,,,,,
1980SN120279,,"Portswood Waitrose [PD]",,50.924255019,-1.39447597,,,,,,
1980SN12272A,,"Portswood Broadway [PH]",,50.926355912,-1.392101019,,,,,,
1980SN120284,,"Portswood Sainsbury's [PI]",,50.927588331,-1.388741195,,,,,,
1980SN120289,,"Bowden Lane",,50.929755355,-1.385283505,,,,,,
1980SN120159,,"Sirdar Road",,50.932886156,-1.383847672,,,,,,
1980SN120157,,"Mayfield Road",,50.934539269,-1.38186197,,,,,,
1980SN120153,,"Woodmill Lane",,50.937022764,-1.380462818,,,,,,
1980SN120150,,"Swaythling McDonald's",,50.938927518,-1.380152872,,,,,,
1980SN120148,,"Market Buildings",,50.94044532,-1.379791114,,,,,,
1980SN121049,,"Bassett Green Road",,50.942580303,-1.380502857,,,,,,
1980SNA90872,,Greenways,,50.944335518,-1.379127318,,,,,,
1980SN121047,,"BTC Sports Ground",,50.946043744,-1.377492381,,,,,,
1900HA030186,,"Trojans Sports Club",,50.95079971,-1.373816664,,,,,,
1900HA030188,,"St Nicolas Church",,50.953999942,-1.373617072,,,,,,
1900HA030191,,"Concorde Club",,50.956472499,-1.37187533,,,,,,
1900HA030124,,"The Cricketers",,50.961054978,-1.374547464,,,,,,
1900HA030122,,"Avenue Park",,50.961841003,-1.378609344,,,,,,
1900HA030134,,"North Stoneham, Robin Square",,50.963892695,-1.382270118,,,,,,
1900HA030132,,"Nightingale School",,50.964859296,-1.379708311,,,,,,
1900HA030129,,"Linnet Square",,50.963586232,-1.375367878,,,,,,
1900HA030128,,"Nightingale Bridge",,50.963724558,-1.370980153,,,,,,
1900HA030219,,"Spencer Road",,50.964852147,-1.368302016,,,,,,
1900HA030221,,"Tennyson Road",,50.96433319,-1.3638092,,,,,,
1900HA030223,,"Nutbeem Road",,50.963748308,-1.358804756,,,,,,
1900HA030224,,"All Saints Church",,50.963370859,-1.355577527,,,,,,
1900HA030204,,"Campbell Road",,50.96477825,-1.351528094,,,,,,
1900HA030206,,"The Swan Centre",,50.967561648,-1.350763063,,,,,,
1900HAA13442,,"Eastleigh Bus Station [F]",,50.969501821,-1.351989289,,,,,,
1900HA030234,,"Chickenhall Lane",,50.970263658,-1.345085634,,,,,,
1900HAA10029,,"Recreation Ground",,50.970102913,-1.340487789,,,,,,
1900HA030236,,"Bishopstoke, Spring Lane Post Office",,50.971151887,-1.336755742,,,,,,
1900HA030238,,"Hamilton Road",,50.971291548,-1.334432278,,,,,,
1900HA030240,,"West Drive",,50.974198517,-1.333279783,,,,,,
1900HA030247,,"Stoke Park Road, Drake Road",,50.974764139,-1.331548255,,,,,,
1900HA030250,,"Colchester Avenue",,50.973732485,-1.330409382,,,,,,
1900HA030252,,"East Drive",,50.972250664,-1.329177344,,,,,,
1900HA030254,,"Hamilton Road",,50.969676595,-1.328787158,,,,,,
1900HA030259,,"Stoke Park School",,50.966722663,-1.328017988,,,,,,
1900HA030261,,"Fair Oak Road, Welcome Inn",,50.964893336,-1.322675804,,,,,,
1900HA030263,,"Weavills Road",,50.964868746,-1.318446815,,,,,,
1900HA030266,,"Haig Road",,50.965733674,-1.314119294,,,,,,
1900HAA09337,,"Stoke Wood Surgery",,50.965795497,-1.310871548,,,,,,
1900HA030267,,"New Clock Inn",,50.964431571,-1.306804811,,,,,,
1900HA030269,,"New Road",,50.965807149,-1.30524637,,,,,,
1900HA030272,,"Sandy Lane, Victena Road",,50.968334397,-1.303798796,,,,,,
1900HA030273,,"Winchester Road",,50.971797348,-1.302436747,,,,,,
1900HA030283,,"Witt Road",,50.968907461,-1.298876925,,,,,,
1900HA030289,,"Fair Oak Square",,50.964558441,-1.297931317,,,,,,
1900HA030208,,"Eastleigh Bus Station [E]",,50.96966383,-1.352015519,,,,,,
1900HA030207,,"Eastleigh Rail Station",,50.968836757,-1.350436825,,,,,,
1900HA030205,,"Campbell Road",,50.964750721,-1.351428796,,,,,,
1900HA030225,,"All Saints Church",,50.963220739,-1.354984241,,,,,,
1900HA030222,,"Nutbeem Road",,50.963723598,-1.359218051,,,,,,
1900HA030220,,"Tennyson Road",,50.964317842,-1.364293571,,,,,,
1900HA030218,,"Spencer Road",,50.964912173,-1.369426179,,,,,,
1900HA030127,,"Nightingale Bridge",,50.96362087,-1.371764742,,,,,,
1900HA030130,,"Linnet Square",,50.963627294,-1.376321395,,,,,,
1900HA030131,,"Nightingale School",,50.964748597,-1.379182899,,,,,,
1900HA030133,,"North Stoneham, Robin Square",,50.963981559,-1.382069581,,,,,,
1900HA030123,,"Avenue Park",,50.961646492,-1.377543998,,,,,,
1900HA030125,,"The Cricketers",,50.961113573,-1.373735052,,,,,,
1900HA030190,,"Concorde Club",,50.956147954,-1.371723091,,,,,,
1900HA030189,,"St Nicolas Church",,50.953990416,-1.373517542,,,,,,
1900HA030187,,"Trojans Sports Club",,50.950538643,-1.373763228,,,,,,
1980SN121051,,"BTC Sports Ground",,50.945995546,-1.377442065,,,,,,
1980SN121050,,Greenways,,50.943832583,-1.379247884,,,,,,
1980SN121048,,"Bassett Green Road",,50.942579473,-1.380346301,,,,,,
1980SN120149,,"Market Buildings",,50.940615786,-1.379717684,,,,,,
1980SN120151,,"Swaythling McDonald's",,50.938549484,-1.380086735,,,,,,
1980HA120154,,"Woodmill Lane",,50.93580199,-1.380877508,,,,,,
1980SN120158,,"Mayfield Road",,50.93390401,-1.382468078,,,,,,
1980SN120287,,"Sirdar Road",,50.932706169,-1.383821588,,,,,,
1980SN120300,,"Bowden Lane",,50.929143386,-1.385191963,,,,,,
1980SN120285,,"Portswood Sainsbury's [PJ]",,50.92714573,-1.390084488,,,,,,
1980SN12275A,,"Portswood Broadway [PB]",,50.926212116,-1.39211712,,,,,,
1980SN120415,,"Portswood Waitrose [PC]",,50.923716835,-1.39473905,,,,,,
1980SN120412,,"Spring Crescent",,50.920905331,-1.395344582,,,,,,
1980SN120408,,"Cedar Road",,50.919234678,-1.399207311,,,,,,
1900HA030292,,"Dean Road",,50.96315293,-1.303491741,,,,,,
1900HA030268,,"New Clock Inn",,50.963996593,-1.306241684,,,,,,
1900HAA09338,,"Stoke Wood Surgery",,50.965669027,-1.310773735,,,,,,
1900HA030265,,"Haig Road",,50.965628699,-1.314619256,,,,,,
1900HA030264,,"Weavills Road",,50.964989892,-1.317633348,,,,,,
1900HA030262,,"Fair Oak Road, Welcome Inn",,50.964692877,-1.322223032,,,,,,
1900HA030260,,"Alan Drayton Way",,50.966290462,-1.326358065,,,,,,
1900HAA10023,,"Stoke Park School",,50.966804079,-1.328102259,,,,,,
1900HA030253,,"Hamilton Road",,50.969866401,-1.328955324,,,,,,
1900HA030251,,"East Drive",,50.972494175,-1.32930202,,,,,,
1900HA030249,,"Colchester Avenue",,50.973707305,-1.330723089,,,,,,
1900HA030248,,"Stoke Park Road, Drake Road",,50.974720728,-1.331819499,,,,,,
1900HA030239,,"West Drive",,50.973517506,-1.333702574,,,,,,
1900HA030237,,"Hamilton Road",,50.971058007,-1.334478341,,,,,,
1900HA030235,,"Bishopstoke, Riverside",,50.969794224,-1.336789311,,,,,,
1900HAA10028,,"Recreation Ground",,50.970013238,-1.340531783,,,,,,
1900HA030233,,"Barton Park",,50.970101346,-1.346611789,,,,,,
1980SN120034,,"Bassett Green Road, Leaside Way",,50.943405568,-1.381815622,,,,,,
1900HA030337,,"Hedge End Superstores",,50.920525766,-1.312109288,,,,,,
1900HA030338,,"Hedge End Trade Park",,50.923759399,-1.313014876,,,,,,
1900HA030340,,"Hamilton Way",,50.92384412,-1.307564419,,,,,,
1900HA030314,,"Westward Road",,50.921375632,-1.303773996,,,,,,
1900HA030312,,"Wildern School",,50.918642967,-1.303815045,,,,,,
1900HA030310,,"Ratcliffe Road",,50.916102256,-1.303141388,,,,,,
1900HA030307,,"Hedge End, Freegrounds Avenue",,50.912420745,-1.304049799,,,,,,
1900HA030406,,"Recreation Ground",,50.910152361,-1.305178825,,,,,,
1900HA030403,,"Alexandra Road",,50.906692626,-1.307093454,,,,,,
1900HA030401,,"Foord Road",,50.904866657,-1.30852852,,,,,,
1900HA030414,,"Upper St Helens Road",,50.904145773,-1.306761482,,,,,,
1900HA030415,,"Sherwood Avenue",,50.903514877,-1.303499901,,,,,,
1900HAA91972,,"Barnfield Way",,50.902914783,-1.300892127,,,,,,
1900HA030417,,"Cranbourne Park",,50.905128961,-1.296734597,,,,,,
1900HA030419,,Ambleside,,50.907279272,-1.292449634,,,,,,
1900HA030421,,"Oaklands Estate, Sovereign Drive",,50.909682751,-1.291374902,,,,,,
1900HA030424,,"Marls Road",,50.913204212,-1.290780917,,,,,,
1900HA030425,,"Tripps End Caravan Park",,50.915165089,-1.290864925,,,,,,
1900HAA10020,,"Maypole Roundabout",,50.916189997,-1.288622371,,,,,,
1900HA030444,,"Brook Cottages",,50.915896112,-1.283926102,,,,,,
1900HA030441,,"Brook Lane",,50.916233968,-1.278913578,,,,,,
1900HA030436,,"Botley School",,50.915064017,-1.274408088,,,,,,
1900HA030439,,"Botley Square",,50.914387614,-1.271203788,,,,,,
1900HAA91311,,"Uplands Farm",,50.91934669,-1.274768297,,,,,,
1900HA030545,,"Oatlands Road",,50.925460627,-1.278970195,,,,,,
1900HA030547,,"Boorley Green, Pear Tree",,50.928684935,-1.281239725,,,,,,
1900HAA92112,,"Boorley Park Primary School",,50.928649983,-1.274769967,,,,,,
1900HAA92159,,"Braxells Road",,50.930569985,-1.27916003,,,,,,
1900HAA91899,,"Morant Crescent",,50.934429989,-1.281769965,,,,,,
1900HA030553,,"Shamblehurst Lane North",,50.939360026,-1.289194973,,,,,,
1900HAA40464,,"Denhams Corner",,50.943228957,-1.293555399,,,,,,
1900HA030461,,"The Brigadier Gerard",,50.947369696,-1.295741774,,,,,,
1900HA030459,,"Dumpers Drove",,50.950003216,-1.295531164,,,,,,
1900HA030297,,"Horton Heath Crossroads",,50.954459029,-1.294794682,,,,,,
1900HA030296,,"Daisy Fields",,50.957877134,-1.294956536,,,,,,
1900HA030293,,"Wyvern School",,50.960055425,-1.295308029,,,,,,
1900HAA91866,,"Mitre Copse",,50.967124155,-1.318157486,,,,,,
1900HAA10109,,"Manor Farm Close",,50.96662327,-1.32950046,,,,,,
1900HAA10107,,"The River Inn",,50.969303417,-1.335870596,,,,,,
1900HA030212,,"Eastleigh Bus Station [A]",,50.970301925,-1.351949677,,,,,,
1980SN121003,,"Southampton, Bargate Street [BL]",,50.902728442,-1.405250373,,,,,,
1980SN120553,,"ASDA & Marlands [AJ]",,50.905990887,-1.406659487,,,,,,
1980SNA19559,,"Civic Centre [AN]",,50.907040482,-1.406162585,,,,,,
1980SNA40401,,"Park Walk [AH]",,50.906991037,-1.403517827,,,,,,
1980SN12544B,,"Solent University [IE]",,50.907427685,-1.399231233,,,,,,
1980SN120548,,"Brintons Road",,50.907986597,-1.394274502,,,,,,
1980SN120558,,"Britannia Road",,50.909663858,-1.389985744,,,,,,
1980SN12550B,,"Northam, Princes Street",,50.912360067,-1.387973357,,,,,,
1980HA120416,,"Quayside Road",,50.91743496,-1.383439948,,,,,,
1980HA120419,,"Rampart Road",,50.918105561,-1.379319802,,,,,,
1980SNA90865,,"Bullar Road",,50.917667785,-1.37441019,,,,,,
1980SN120870,,"Midanbury Lane",,50.916988416,-1.370529027,,,,,,
1980SN120871,,"Little Lances Hill",,50.915209258,-1.364137528,,,,,,
1980SN12921C,,"Lances Hill [BC]",,50.914651376,-1.362423918,,,,,,
1980SN12921A,,"Bitterne Shops [BD]",,50.915131806,-1.361478505,,,,,,
1980SN120457,,"Bitterne Leisure Centre",,50.91489072,-1.356872922,,,,,,
1980SN120459,,"Bath Road",,50.914627502,-1.349934814,,,,,,
1980SN120792,,"Mon Crescent",,50.914656911,-1.345538917,,,,,,
1980SN120789,,"Thornhill Park, The Bittern",,50.914649268,-1.33780069,,,,,,
1980SN120778,,"Thornhill Avenue",,50.914819584,-1.334540764,,,,,,
1980HA121057,,"Moorhill Gardens",,50.914679539,-1.328923928,,,,,,
1900HA030331,,"Goodlands Vale",,50.914694077,-1.312863801,,,,,,
1900HA030334,,"Turnpike Way",,50.918264034,-1.306765195,,,,,,
1900HA030335,,"Berrywood Gardens",,50.919524757,-1.308581673,,,,,,
1900HAA10106,,"The River Inn",,50.969130996,-1.33527904,,,,,,
1900HAA10108,,"Manor Farm Close",,50.966721769,-1.329427839,,,,,,
1900HAA91864,,"Alan Drayton Way",,50.966448862,-1.325757665,,,,,,
1900HAA91865,,"Mitre Copse",,50.967310902,-1.317798729,,,,,,
1900HA030291,,"Shorts Road",,50.963986839,-1.301585361,,,,,,
1900HA030290,,"Fair Oak Square",,50.964630888,-1.298015666,,,,,,
1900HA030294,,"Wyvern School",,50.960000531,-1.295152233,,,,,,
1900HA030295,,"Daisy Fields",,50.957461715,-1.294663823,,,,,,
1900HA030298,,"Horton Heath Crossroads",,50.953667164,-1.294707005,,,,,,
1900HA030460,,"Dumpers Drove",,50.94973278,-1.295421366,,,,,,
1900HA030462,,"The Brigadier Gerard",,50.946901702,-1.29567767,,,,,,
1900HAA91574,,"Denhams Corner",,50.943326832,-1.293383113,,,,,,
1900HA030554,,"Shamblehurst Lane North",,50.939389982,-1.289122927,,,,,,
1900HAA91898,,"Morant Crescent",,50.934539972,-1.280849946,,,,,,
1900HAA92160,,"Braxells Road",,50.930610037,-1.27901996,,,,,,
1900HAA92111,,"Boorley Park Primary School",,50.928539993,-1.273350042,,,,,,
1900HA030548,,"Boorley Green, Pear Tree",,50.928765071,-1.281110428,,,,,,
1900HA030546,,"Oatlands Road",,50.926145965,-1.27939599,,,,,,
1900HA030440,,"Uplands Farm",,50.919128505,-1.274387578,,,,,,
1900HA030438,,"Botley Square",,50.914282465,-1.271646399,,,,,,
1900HA030437,,"Botley School",,50.915011393,-1.274622281,,,,,,
1900HA030442,,"Brook Lane",,50.916217653,-1.279184113,,,,,,
1900HA030443,,"Brook Cottages",,50.915819642,-1.283187561,,,,,,
1900HA030445,,"Maypole Roundabout",,50.916219798,-1.289810448,,,,,,
1900HA030426,,"Tripps End Caravan Park",,50.915434753,-1.290846603,,,,,,
1900HA030423,,"Marls Road",,50.912888812,-1.290671914,,,,,,
1900HA030422,,"Oaklands Estate, Sovereign Drive",,50.909835006,-1.291273027,,,,,,
1900HA030420,,Ambleside,,50.907430752,-1.292219775,,,,,,
1900HA030418,,"Cranbourne Park",,50.905100187,-1.296436368,,,,,,
1900HAA91973,,"Barnfield Way",,50.90290601,-1.30011805,,,,,,
1900HA030416,,"Sherwood Avenue",,50.903269895,-1.303133798,,,,,,
1900HA030413,,"Upper St Helens Road",,50.904188655,-1.307927026,,,,,,
1900HA030402,,"Foord Road",,50.904902961,-1.30858487,,,,,,
1900HA030404,,"Alexandra Road",,50.907337751,-1.306699869,,,,,,
1900HA030405,,"Recreation Ground",,50.909812199,-1.30543991,,,,,,
1900HA030306,,"Hedge End, Freegrounds Avenue",,50.913075698,-1.303798219,,,,,,
1900HA030305,,"Hedge End Budgens",,50.913958411,-1.304041099,,,,,,
1900HA030311,,"Wildern School",,50.917765126,-1.30301698,,,,,,
1900HA030313,,"Willow Mead",,50.919788762,-1.304580124,,,,,,
1900HA030315,,"Westward Road",,50.921331776,-1.3039596,,,,,,
1900HA030341,,"Hamilton Way",,50.923736051,-1.307537567,,,,,,
1900HA030339,,"Hedge End Trade Park",,50.924411189,-1.312222747,,,,,,
1900HA030336,,"Berrywood Gardens",,50.919624171,-1.308665558,,,,,,
1900HA030333,,"Turnpike Way",,50.917993607,-1.306655404,,,,,,
1900HA030332,,"Goodlands Vale",,50.914675675,-1.312792947,,,,,,
1980HA121056,,"Moorhill Gardens",,50.914690573,-1.329279391,,,,,,
1980SN120779,,"Thornhill Avenue",,50.91469702,-1.335125732,,,,,,
1980SN120780,,"Thornhill Park, The Bittern",,50.914555435,-1.338698187,,,,,,
1980SN120790,,"Mon Crescent",,50.914573433,-1.345084892,,,,,,
1980SN120577,,"Bath Road",,50.914558179,-1.350405199,,,,,,
1980SN120474,,"Bitterne Library",,50.914515786,-1.355740101,,,,,,
1980SN120576,,"Bitterne Leisure Centre",,50.915021067,-1.35768195,,,,,,
1980SNA90798,,"Bitterne Shops [BA]",,50.915138932,-1.361137007,,,,,,
1980SN120431,,"Midanbury Lane",,50.916927389,-1.370885489,,,,,,
1980HA120420,,"Bullar Road",,50.917646619,-1.375883268,,,,,,
1980HA120418,,"Rampart Road",,50.917921943,-1.380303828,,,,,,
1980HA120417,,"Quayside Road",,50.916753456,-1.383804587,,,,,,
1980SN120551,,"Northam, Princes Street",,50.911102771,-1.388288538,,,,,,
1980SNA09318,,"Britannia Road",,50.909412011,-1.389974811,,,,,,
1980SN120547,,"Brintons Road",,50.907770719,-1.39426308,,,,,,
1980SN120545,,"Solent University [IA]",,50.907125251,-1.399875139,,,,,,
1980SN120533,,"New Road",,50.906847166,-1.403519665,,,,,,
1980SN12532B,,"Above Bar [AB]",,50.905655236,-1.404317105,,,,,,
1980SN12618B,,"Southampton, Vincents Walk [CH]",,50.904108543,-1.40255913,,,,,,
1980HAA13371,,"Southampton, Vincents Walk [CM]",,50.903965691,-1.40276006,,,,,,
1980SN12617B,,"Above Bar [AF]",,50.906375965,-1.404578136,,,,,,
1980SN12441A,,"Art Gallery [HF]",,50.908803545,-1.40626817,,,,,,
1980SN120518,,"Southampton Central Station [SB]",,50.908423845,-1.412986228,,,,,,
1980SN120516,,"Four Post Hill",,50.90926326,-1.417199964,,,,,,
1980SN120501,,"Sir Georges Road",,50.910814116,-1.419840432,,,,,,
1980SN120498,,"Paynes Road",,50.913894734,-1.422703969,,,,,,
1980SNA09572,,"St Mark's School",,50.915903844,-1.425296563,,,,,,
1980SN120380,,"Grove Road",,50.917505542,-1.427339571,,,,,,
1980SN120377,,"Shirley Lidl",,50.92043755,-1.431116325,,,,,,
1980SN120371,,"Church Street [SA]",,50.921975857,-1.433089364,,,,,,
1980SN12368B,,"Shirley Precinct [SG]",,50.923460111,-1.435048959,,,,,,
1980SN120217,,"Grange Road",,50.925232459,-1.438954446,,,,,,
1980SN120207,,"Arliss Road",,50.926953233,-1.443387302,,,,,,
1980SN120204,,"Maybush Court",,50.927850069,-1.444771032,,,,,,
1980SN121045,,"Maybush Corner",,50.931528381,-1.448654732,,,,,,
1980SN121044,,"Green Lane",,50.93495152,-1.451844716,,,,,,
1980SNA09323,,"Lower Brownhill Road",,50.935971944,-1.452757762,,,,,,
1980SN120056,,"Mercury Close",,50.937170054,-1.451292074,,,,,,
1980SN120057,,"Gemini Close",,50.937690801,-1.449208098,,,,,,
1980SN120049,,"Lordshill Library [LE]",,50.939780077,-1.449852354,,,,,,
1980SN120050,,"Andromeda Road",,50.940188355,-1.452537502,,,,,,
1980SN120051,,"Oasis Academy",,50.940921422,-1.457396527,,,,,,
1900HA100808,,"Nursling, The Balmoral",,50.945093671,-1.461233894,,,,,,
1900HA100801,,"Rownhams Way",,50.94923226,-1.455862047,,,,,,
1900HA100799,,"St Johns Church",,50.95086328,-1.454661435,,,,,,
1900HA100798,,"Routs Way",,50.95359529,-1.454302034,,,,,,
1900HA100794,,"Rownhams, M27 Road Bridge",,50.957154747,-1.452053507,,,,,,
1900HA100791,,"Kiln Farm Riding School",,50.963531403,-1.446553194,,,,,,
1900HAA09308,,"Packridge Lane",,50.966115459,-1.445340539,,,,,,
1900HA100788,,"Meadow Close",,50.97097295,-1.443787301,,,,,,
1900HA100786,,"Tanners Road",,50.972312562,-1.441848579,,,,,,
1900HA100783,,"St John's Court",,50.973664933,-1.438827135,,,,,,
1900HA100781,,"North Baddesley, Fleming Avenue Shops",,50.976684209,-1.438377693,,,,,,
1900HA100760,,"Brownhill Road",,50.974983414,-1.441873551,,,,,,
1900HA100759,,"Brook Close",,50.973126745,-1.444758574,,,,,,
1900HA100757,,"St Christophers Close",,50.973618995,-1.446162748,,,,,,
1900HA100756,,"North Baddesley, The Bede's Lea",,50.976128011,-1.447790017,,,,,,
1900HA100753,,"Crescent Road",,50.978590596,-1.4497217,,,,,,
1900HA100751,,"St Andrew's Close",,50.981706098,-1.452519705,,,,,,
1900HAA09189,,"Scrag Hill",,50.983542763,-1.45491991,,,,,,
1900HA100239,,"Whitenap, Luzborough Roundabout",,50.985995207,-1.466074793,,,,,,
1900HA100238,,"Halterworth Lane",,50.986705024,-1.46989905,,,,,,
1900HA100229,,"Chambers Avenue",,50.987694266,-1.475900075,,,,,,
1900HA100227,,"Tadburn Road",,50.988581667,-1.483341473,,,,,,
1900HA100053,,"Abbey Lodge",,50.990368443,-1.488864094,,,,,,
1900HA100055,,"Alma Road",,50.989365589,-1.491909848,,,,,,
1900HA100057,,"The Hundred",,50.988535777,-1.495480746,,,,,,
1900HA100220,,"Romsey Bus Station [A]",,50.988340677,-1.498204096,,,,,,
1900HA100056,,"The Hundred",,50.988647994,-1.494396727,,,,,,
1900HA100054,,"Alma Road",,50.989606573,-1.491494035,,,,,,
1900HA100052,,"Abbey Lodge",,50.990493457,-1.48866325,,,,,,
1900HA100221,,"Tadfield Road",,50.990289519,-1.487269194,,,,,,
1900HA100228,,"Tadburn Road",,50.988660767,-1.482927421,,,,,,
1900HA100230,,"Chambers Avenue",,50.987727165,-1.475215842,,,,,,
1900HA100231,,"Halterworth Lane",,50.987242835,-1.471502837,,,,,,
1900HA100240,,"Whitenap, Luzborough Roundabout",,50.98590933,-1.464993037,,,,,,
1900HAA09186,,"Scrag Hill",,50.983724261,-1.455273934,,,,,,
1900HA100752,,"St Andrew's Close",,50.981280744,-1.451940653,,,,,,
1900HA100754,,"Crescent Road",,50.978309836,-1.449297689,,,,,,
1900HA100755,,"North Baddesley, The Bede's Lea",,50.975666012,-1.447377591,,,,,,
1900HA100758,,"St Christophers Close",,50.973501223,-1.445978991,,,,,,
1900HA100790,,"Brook Close",,50.973850344,-1.443752947,,,,,,
1900HA100761,,"The Vineyards",,50.976340772,-1.439891662,,,,,,
1900HA100782,,"North Baddesley, Fleming Avenue Shops",,50.976538491,-1.437994869,,,,,,
1900HA100784,,"St John's Court",,50.973808006,-1.438359954,,,,,,
1900HA100785,,"Tanners Road",,50.972633888,-1.441346241,,,,,,
1900HA100787,,"Meadow Close",,50.97107814,-1.443216363,,,,,,
1900HAA09309,,"Packridge Lane",,50.965881062,-1.445215165,,,,,,
1900HA100792,,"Kiln Farm Riding School",,50.96324454,-1.446741716,,,,,,
1900HA100793,,"Rownhams, M27 Road Bridge",,50.957235073,-1.451924423,,,,,,
1900HA100797,,"Routs Way",,50.953972351,-1.454169489,,,,,,
1900HA100800,,"St Johns Church",,50.950629822,-1.454735345,,,,,,
1900HA100802,,"Rownhams Way",,50.948453011,-1.456525957,,,,,,
1900HA100807,,"Nursling, The Balmoral",,50.945210303,-1.46117561,,,,,,
1980SN121043,,"Oasis Academy",,50.941435151,-1.457646744,,,,,,
1980SN120043,,"Andromeda Road",,50.940387177,-1.452748658,,,,,,
1980SN120048,,"Lordshill Library [LD]",,50.939824299,-1.449695275,,,,,,
1980SN120059,,"Gemini Close",,50.937521899,-1.449622815,,,,,,
1980SN121046,,"Lower Brownhill Road",,50.936124873,-1.452770199,,,,,,
1980SN120062,,"Green Lane",,50.934354779,-1.451154417,,,,,,
1980SN120196,,"Maybush Corner",,50.930561204,-1.447598935,,,,,,
1980SN120203,,"Maybush Court",,50.928265793,-1.445207183,,,,,,
1980SN120208,,"Arliss Road",,50.927269306,-1.443668106,,,,,,
1980SN120216,,"Grange Road",,50.925432398,-1.439393114,,,,,,
1980SN120367,,"Shirley Precinct [SI]",,50.923567326,-1.434905386,,,,,,
1980SN120372,,"Church Street [SJ]",,50.921504478,-1.432312609,,,,,,
1980SN120376,,"Shirley Lidl",,50.919929912,-1.430283153,,,,,,
1980SN12367B,,"Shirley McDonalds",,50.918907366,-1.428972603,,,,,,
1980SN120381,,"Grove Road",,50.917052038,-1.426548502,,,,,,
1980SN120496,,"Paynes Road",,50.914744258,-1.42356118,,,,,,
1980SN120499,,"Sir Georges Road",,50.912013218,-1.420465613,,,,,,
1980SN120515,,"Four Post Hill",,50.90964319,-1.417650368,,,,,,
1980SNA09196,,"Southampton Central Station [SD]",,50.908378099,-1.412830351,,,,,,
1980SN120526,,"SeaCity Museum [AM]",,50.907822089,-1.407788263,,,,,,
1900HA030211,,"Eastleigh Bus Station [B]",,50.970122407,-1.352009141,,,,,,
1900HA030202,,"Derby Road",,50.962268777,-1.353043913,,,,,,
1900HA030197,,"Doncaster Road",,50.960556841,-1.355687633,,,,,,
1900HA030194,,"Eastleigh College",,50.960568253,-1.361041297,,,,,,
1900HA030192,,"Chestnut Avenue, Barton Peveril College",,50.96114057,-1.365404841,,,,,,
1900HAA90913,,"Monks Way",,50.961313244,-1.369061941,,,,,,
1900HAA10110,,"Cedar Road",,50.962535577,-1.370611735,,,,,,
1900HA030121,,"Falkland Road",,50.965397271,-1.38622323,,,,,,
1900HAA90985,,"B&Q House",,50.966916106,-1.387769712,,,,,,
1900HAA91312,,"Chestnut Avenue, Asda",,50.969197211,-1.388921783,,,,,,
1900HA030004,,"Hampshire Corporate Park",,50.970200405,-1.39507533,,,,,,
1900HAA09188,,"School Lane",,50.973222656,-1.399241823,,,,,,
1900HA100004,,"Templars Way, Castle Lane",,50.97479257,-1.403248275,,,,,,
1900HA100767,,"Misslebrook Lane",,50.975469062,-1.425188708,,,,,,
1900HA100764,,"North Baddesley Schools",,50.976613368,-1.434874584,,,,,,
1900HA100762,,"North Baddesley, Boots Pharmacy",,50.97755402,-1.437868664,,,,,,
1900HA030148,,"Boyatt Wood, Arundel Road",,50.984759616,-1.354825682,,,,,,
1900HA030151,,"Chatsworth Road",,50.981832989,-1.354082732,,,,,,
1900HA030153,,"Royston Avenue",,50.981470734,-1.356879832,,,,,,
1900HA030146,,"Broadlands Avenue",,50.982746707,-1.35834376,,,,,,
1900HA030137,,"Launceston Drive",,50.979630275,-1.362346729,,,,,,
1900HA030168,,"Shakespeare Road, The Arrow",,50.977579819,-1.36066551,,,,,,
1900HAA90987,,"Selborne Drive",,50.977044637,-1.35818017,,,,,,
1900HA030166,,"Arthur Road",,50.975940198,-1.353580465,,,,,,
1900HA030164,,"Stratford Place",,50.974652014,-1.351547322,,,,,,
1900HA100763,,"North Baddesley Schools",,50.976957605,-1.43539743,,,,,,
1900HA100766,,"Misslebrook Lane",,50.975540856,-1.425159335,,,,,,
1900HA100003,,"Templars Way, Castle Lane",,50.974781614,-1.402863849,,,,,,
1900HAA09187,,"School Lane",,50.972892104,-1.398474277,,,,,,
1900HA030003,,"Hampshire Corporate Park",,50.970134365,-1.394478032,,,,,,
1900HAA13773,,"Chestnut Avenue, Asda",,50.968303673,-1.388292647,,,,,,
1900HA030120,,"Falkland Road",,50.965422975,-1.385980805,,,,,,
1900HAA10111,,"Cedar Road",,50.962444432,-1.370385135,,,,,,
1900HAA90912,,"Monks Way",,50.961406082,-1.369601772,,,,,,
1900HA030193,,"Chestnut Avenue, Barton Peveril College",,50.961174371,-1.365005687,,,,,,
1900HA030195,,"Eastleigh College",,50.960974859,-1.359754211,,,,,,
1900HA030196,,"Doncaster Road",,50.960777114,-1.356496208,,,,,,
1900HA030203,,"Derby Road",,50.962511159,-1.352969351,,,,,,
1900HA030209,,"Eastleigh Bus Station [D]",,50.969816689,-1.352013393,,,,,,
1900HA100134,,"Shootash Crossroads",,50.997824742,-1.548219834,,,,,,
1900HA100131,,"Newtown Corner",,51.002834361,-1.567482296,,,,,,
1900HA100128,,"Hatchet Inn",,50.999696894,-1.585082632,,,,,,
1900HA100127,,"Sherfield English Post Office",,51.001696121,-1.596195126,,,,,,
4600WIA12302,,"Greenways Cottage",,51.009517627,-1.6310347,,,,,,
4600WIA12300,,"Meadow Court",,51.01174042,-1.640239689,,,,,,
4600WIA12298,,"Village Hall",,51.012901106,-1.646360271,,,,,,
4600HA140020,,"Whiteparish Church",,51.011377639,-1.651090025,,,,,,
4600WIA12307,,"Whiteparish Primary School",,51.008201911,-1.650600713,,,,,,
4600WIA12309,,"Brympton Riding Stables",,51.005129769,-1.648671195,,,,,,
4600WIA12311,,"Barters Farm",,51.000892049,-1.644912385,,,,,,
4600WIA12316,,"Landford Wood",,50.992787118,-1.643962538,,,,,,
4600WIA12317,,"North Common Lane",,50.988237364,-1.641133627,,,,,,
4600WIA12319,,"The Pound",,50.980812612,-1.636247825,,,,,,
4600HA140403,,"Royal Jaipur",,50.979173597,-1.632599798,,,,,,
4600WIA12321,,"Landford Bridge",,50.978167074,-1.62994408,,,,,,
4600WIA12324,,"Landford Garden Centre",,50.976525629,-1.625598561,,,,,,
4600HA140021,,"Plaitford Service Station",,50.973398495,-1.609771571,,,,,,
1900HA100158,,"Plaitford Village Hall",,50.972577017,-1.603483291,,,,,,
1900HA100156,,"Maurys Lane",,50.971866292,-1.598120018,,,,,,
1900HA100155,,"Slab Lane",,50.970481149,-1.590256244,,,,,,
1900HA100147,,"West Wellow, Lower Common Road",,50.970337631,-1.585258646,,,,,,
1900HA100145,,"Wheatears Drive",,50.972873916,-1.582857566,,,,,,
1900HA100142,,"West Wellow War Memorial",,50.975372761,-1.57756517,,,,,,
1900HA100140,,"Wellow, Carlo's Tearoom",,50.972888856,-1.559955408,,,,,,
1900HA080001,,"East Wellow, Whinwhistle Corner",,50.962748431,-1.565547579,,,,,,
1900HA080004,,"Salisbury Lodge",,50.961110109,-1.560280197,,,,,,
1900HA080006,,"Ower, Shelley Lodge",,50.955828595,-1.543088587,,,,,,
1900HA030165,,"Stratford Place",,50.975006718,-1.352268792,,,,,,
1900HA030167,,"Arthur Road",,50.976370048,-1.354884922,,,,,,
1900HAA90986,,"Selborne Drive",,50.976962851,-1.358024614,,,,,,
1900HA030169,,"Shakespeare Road, The Arrow",,50.977517422,-1.360766075,,,,,,
1900HA030138,,"Launceston Drive",,50.979684925,-1.362474183,,,,,,
1900HA030147,,"Broadlands Avenue",,50.982178738,-1.359719154,,,,,,
1900HA080528,,"Lyndhurst Fire Station",,50.872227039,-1.571846479,,,,,,
1900HA080532,,Foxlease,,50.865128409,-1.573332429,,,,,,
1900HA080534,,"The Crown Stirrup",,50.862365362,-1.572689815,,,,,,
1900HA080535,,"Clay Hills Schools",,50.859739275,-1.572614345,,,,,,
1900HA080538,,"New Park",,50.841521664,-1.572951113,,,,,,
1900HA080539,,"Balmer Lawn Hotel",,50.827623031,-1.571544432,,,,,,
1900HA080542,,"Brockenhurst College",,50.82209347,-1.571779563,,,,,,
1900HAA13538,,"Brockenhurst Railway Station",,50.816893545,-1.573629859,,,,,,
1900HA080544,,"Foresters Arms",,50.818230436,-1.572808552,,,,,,
1900HA080547,,"Gates Garage",,50.818270343,-1.576357055,,,,,,
1900HA080549,,"Brockenhurst Primary School",,50.815994011,-1.578506852,,,,,,
1900HA080551,,"Collyers Road",,50.812563615,-1.579829336,,,,,,
1900HA080553,,"Brockenhurst Golf Club",,50.80766045,-1.581718284,,,,,,
1900HA080555,,"Latchmoor Corner",,50.803181268,-1.581474433,,,,,,
1900HA080557,,"The Filly Inn",,50.800631448,-1.57267094,,,,,,
1900HA080558,,"Setley House",,50.796528746,-1.569657722,,,,,,
1900HA080561,,"The Spinney",,50.79310386,-1.567575163,,,,,,
1900HA080563,,"Setley, Rosie Lea House",,50.790382182,-1.565982937,,,,,,
1900HA080565,,"Boldre Grange",,50.787169807,-1.563033592,,,,,,
1900HA080567,,"Battramsley Crossroads",,50.783723878,-1.56017195,,,,,,
1900HAA90785,,"Ricardo Way",,50.771619788,-1.550727168,,,,,,
1900HAA90784,,"Lymington New Forest Hospital",,50.769453992,-1.545776999,,,,,,
1900HAA90786,,"Ricardo Way",,50.771611177,-1.55082652,,,,,,
1900HA080650,,"The Monkey House",,50.766616026,-1.552065429,,,,,,
1900HA080651,,"Alexandra Road",,50.764661205,-1.551176611,,,,,,
1900HA080654,,"Kings Road",,50.761106616,-1.550530042,,,,,,
1900HA081114,,"Lymington Town Hall",,50.760714037,-1.547817001,,,,,,
1900HA080664,,"Bridge Road",,50.761712736,-1.539918826,,,,,,
1900HAA91650,,"Lymington, Gosport Street",,50.759936493,-1.538731118,,,,,,
1900HAA91728,,"Lymington, High Street",,50.757922792,-1.543471914,,,,,,
1900HAA13545,,"Priestlands School",,50.752875956,-1.552253202,,,,,,
1980SNA90985,,"Southampton, Albion Place [BB]",,50.90172997,-1.405419944,,,,,,
1980HAA13582,,"Southampton, Westquay [BS]",,50.903100005,-1.405814494,,,,,,
1980SN121022,,"SeaCity Museum [AL]",,50.908130048,-1.408225265,,,,,,
1980SN120503,,"Queenstown Road",,50.910762944,-1.424037045,,,,,,
1980SN12493A,,"Christ Church Freemantle",,50.911248699,-1.427729239,,,,,,
1980HA120483,,"Millbrook Station",,50.911791799,-1.433995349,,,,,,
1980HA121024,,"Regents Park Road",,50.913225526,-1.444176856,,,,,,
1980SN121027,,"King Georges Avenue",,50.914051871,-1.449671954,,,,,,
1980SN120841,,"Millbrook Roundabout",,50.917862167,-1.458759996,,,,,,
1980SN120842,,"Parkside Avenue",,50.91941615,-1.462284319,,,,,,
1980SN120843,,"Redbridge Roundabout",,50.921676289,-1.468845361,,,,,,
1900HA080032,,"Totton Railway Station [D]",,50.918269003,-1.483067367,,,,,,
1900HA080031,,"Totton, RC Church [C]",,50.91855138,-1.485923665,,,,,,
1900HA080034,,"Totton Asda [A]",,50.918309375,-1.490208332,,,,,,
1900HA080198,,"Batts Corner",,50.915504057,-1.484136413,,,,,,
1900HA080199,,"Bartram Road",,50.913806228,-1.486573346,,,,,,
1900HA080200,,"Rushington Roundabout",,50.913381566,-1.490219467,,,,,,
1900HA080238,,"Culford Way",,50.913757388,-1.493927966,,,,,,
1900HA080237,,"Manor Close",,50.913044017,-1.49740643,,,,,,
1900HA080235,,"Spicers Way",,50.911159787,-1.498379701,,,,,,
1900HA080234,,"Mill Way",,50.908439662,-1.501552183,,,,,,
1900HAA91109,,"Rushington, Cocklydown Lane",,50.907379955,-1.503189989,,,,,,
1900HA080232,,"Knellers Lane",,50.905943081,-1.508704123,,,,,,
1900HA080229,,"Foxhills School",,50.905187887,-1.510888019,,,,,,
1900HA080227,,"Foxhills Close",,50.903227775,-1.513098628,,,,,,
1900HA080225,,"Foxhills, Ashdene Rd/Whartons Lane",,50.901683391,-1.513655118,,,,,,
1900HA080224,,"Dene Way",,50.898864753,-1.517026159,,,,,,
1900HAA13541,,"Ash Grove",,50.897520288,-1.518092307,,,,,,
1900HAA13544,,"New Road Top",,50.895659985,-1.516191931,,,,,,
1900HA080220,,"Ashurst Co-op",,50.894255517,-1.517969577,,,,,,
1900HA080221,,"Ashurst Shopping Parade",,50.892769326,-1.521752712,,,,,,
1900HA080518,,"Ashurst Railway Station",,50.890117134,-1.52853308,,,,,,
1900HA080519,,"Ashurst Lodge",,50.886422338,-1.537810874,,,,,,
1900HA080522,,"Lodgehill Cottage",,50.882432757,-1.547786586,,,,,,
1900HA080523,,"Thatched Cottage Park",,50.875050023,-1.564373169,,,,,,
1900HA080526,,"Queens Road",,50.873292182,-1.568056288,,,,,,
1900HA080655,,"Lymington Sports Ground",,50.758755736,-1.549545947,,,,,,
1900HA080658,,"Lymington, High Street",,50.757950878,-1.543755185,,,,,,
1900HAA91649,,"Lymington, Gosport Street",,50.759569275,-1.538628251,,,,,,
1900HA080213,,"Colbury Hall",,50.901522391,-1.50317607,,,,,,
1900HA080666,,"Priestlands Place",,50.756740468,-1.549310097,,,,,,
1900HA080656,,"Lymington Sports Ground",,50.758224532,-1.549380916,,,,,,
1900HA080653,,"Kings Road",,50.761106943,-1.550615107,,,,,,
1900HA080652,,"Alexandra Road",,50.763573351,-1.551243727,,,,,,
1900HA080649,,"The Monkey House",,50.766526211,-1.552094645,,,,,,
1900HA080566,,"Battramsley Crossroads",,50.783859511,-1.560369269,,,,,,
1900HA080564,,"Boldre Grange",,50.787125165,-1.563119124,,,,,,
1900HA080562,,"Setley, Rosie Lea House",,50.789769914,-1.565775801,,,,,,
1900HA080560,,"The Spinney",,50.793311524,-1.567800254,,,,,,
1900HA080559,,"Setley House",,50.796511128,-1.569757206,,,,,,
1900HA080556,,"The Filly Inn",,50.800686596,-1.572996811,,,,,,
1900HA080554,,"Latchmoor Corner",,50.803127314,-1.581474915,,,,,,
1900HA080552,,"Brockenhurst Golf Club",,50.807642872,-1.581831979,,,,,,
1900HA080550,,"Collyers Road",,50.812554929,-1.579914577,,,,,,
1900HA080548,,"Brockenhurst Primary School",,50.816021398,-1.578620164,,,,,,
1900HA080546,,"Gates Garage",,50.818145224,-1.576571118,,,,,,
1900HA080541,,"Brockenhurst College",,50.822327633,-1.571876799,,,,,,
1900HA080540,,"Balmer Lawn Hotel",,50.827614455,-1.571658096,,,,,,
1900HA080537,,"New Park",,50.841513087,-1.573064811,,,,,,
1900HA080536,,"Clay Hills Schools",,50.859937624,-1.572754614,,,,,,
1900HAA91615,,"The Crown Stirrup",,50.862329861,-1.572818019,,,,,,
1900HA080533,,Foxlease,,50.864337407,-1.573424901,,,,,,
1900HA080529,,"Goose Green",,50.867493267,-1.575755047,,,,,,
1900HA080531,,"Lyndhurst, Crown Hotel",,50.872636149,-1.57801073,,,,,,
1900HA080527,,"Lyndhurst Fire Station",,50.872351679,-1.571504253,,,,,,
1900HA080525,,"Queens Road",,50.873774814,-1.567255939,,,,,,
1900HA080524,,"Thatched Cottage Park",,50.875086309,-1.564458108,,,,,,
1900HA080521,,"Lodgehill Cottage",,50.882504804,-1.547814319,,,,,,
1900HA080520,,"Ashurst Lodge",,50.886040227,-1.538966154,,,,,,
1900HA080517,,"Ashurst Railway Station",,50.89084147,-1.527485191,,,,,,
1900HA080222,,"Ashurst Shopping Parade",,50.892707894,-1.522123012,,,,,,
1900HA080219,,"Ashurst Co-op",,50.894746205,-1.517026079,,,,,,
1900HAA13542,,"Ash Grove",,50.897484671,-1.518177992,,,,,,
1900HA080223,,"Dene Way",,50.898918882,-1.51706826,,,,,,
1900HA080226,,"Foxhills, Ashdene Rd/Whartons Lane",,50.90172847,-1.513683091,,,,,,
1900HA080228,,"Foxhills Close",,50.903548999,-1.512950932,,,,,,
1900HA080230,,"Foxhills School",,50.905215101,-1.510944622,,,,,,
1900HA080231,,"Knellers Lane",,50.90597887,-1.50866108,,,,,,
1900HA080233,,"Rushington, Cocklydown Lane",,50.907419976,-1.503169936,,,,,,
1900HAA91108,,"Mill Way",,50.908601762,-1.501607345,,,,,,
1900HAA91645,,"Spicers Way",,50.911259493,-1.498563539,,,,,,
1900HA080236,,"Manor Close",,50.913223245,-1.497262257,,,,,,
1900HA080239,,"Culford Way",,50.913793356,-1.493927576,,,,,,
1900HA080201,,"Rushington Roundabout",,50.913517935,-1.490559365,,,,,,
1900HA080202,,"Brokenford Lane",,50.914616062,-1.488740834,,,,,,
1900HA080197,,"Batts Corner",,50.91630125,-1.485464783,,,,,,
1900HA080030,,"Totton, Shopping Precinct [B]",,50.918952967,-1.487270724,,,,,,
1900HA080033,,"Totton Railway Station [E]",,50.918840017,-1.482050992,,,,,,
1980HA122972,,"Redbridge Roundabout",,50.922255234,-1.471584609,,,,,,
1980SN120838,,"Redbridge School",,50.921140419,-1.465707339,,,,,,
1980SN120839,,"Parkside Avenue",,50.919257512,-1.46132545,,,,,,
1980SN120840,,"Millbrook Roundabout",,50.91784684,-1.457394498,,,,,,
1980SN121026,,"King Georges Avenue",,50.914020536,-1.448747722,,,,,,
1980SN121025,,"Regents Park Road",,50.913566205,-1.443959433,,,,,,
1980HA120481,,"Waterhouse Lane",,50.912799694,-1.4362684,,,,,,
1980HA120482,,"Millbrook Station",,50.911912375,-1.433343566,,,,,,
1980SN120494,,"Christ Church Freemantle",,50.911312959,-1.427575119,,,,,,
1980SN120495,,"Queenstown Road",,50.910909338,-1.424547292,,,,,,
1980SNA09017,,"Wellington Court",,50.910423765,-1.420912048,,,,,,
1900HA080667,,"Priestlands Place",,50.756439212,-1.550475483,,,,,,
1900HA080657,,"Lymington, High Street",,50.757710356,-1.544338785,,,,,,
1980SN120047,,"Lordshill Sainsbury's [LC]",,50.94183231,-1.450269373,,,,,,
1980SN120045,,"Lordshill [LA]",,50.941720432,-1.451338173,,,,,,
1980SN120008,,"Blackbushe Close",,50.943549365,-1.448256424,,,,,,
1980SN120011,,"Kinloss Court",,50.943247597,-1.443406354,,,,,,
1980SN120013,,"Tanners Brook",,50.942639853,-1.436681225,,,,,,
1980SN120014,,"Woburn Road Flyover",,50.943660588,-1.432057183,,,,,,
1980SN120089,,"Aldermoor Shops",,50.940714669,-1.429104172,,,,,,
1980SN120092,,"Lyburn Court",,50.938914623,-1.428784631,,,,,,
1980SN120086,,"Springford Crescent",,50.936926691,-1.430502538,,,,,,
1980SN120083,,"General Hospital, Coxford Road [B]",,50.935061775,-1.433485365,,,,,,
1980SN120102,,"Vine Road [E]",,50.934082788,-1.437453403,,,,,,
1980SN120985,,"Warren Avenue",,50.933789095,-1.439961542,,,,,,
1980SN120989,,"Coxford Close",,50.933206277,-1.444081148,,,,,,
1980SN120188,,"Maybush Corner",,50.929748919,-1.448874971,,,,,,
1980SN120007,,"Crabwood Road",,50.92820062,-1.450444214,,,,,,
1980SN120187,,"Borrowdale Road",,50.927578338,-1.453894903,,,,,,
1980SN120184,,"Ullswater Road",,50.928777615,-1.456527485,,,,,,
1980SN120183,,"Millbrook Towers",,50.930255649,-1.4591712,,,,,,
1980SN120177,,"The Saints",,50.929338337,-1.463052201,,,,,,
1980SN120179,,"Sedburgh Road",,50.926159889,-1.464113213,,,,,,
1980SN120180,,"Millbrook, Kendal Avenue",,50.924395571,-1.463720866,,,,,,
1980SN120334,,"Windrush Road",,50.92190756,-1.45849968,,,,,,
1980SN120338,,"Quantock Road",,50.921169606,-1.454510509,,,,,,
1980SN120346,,"Cotswold Road",,50.921527159,-1.452130436,,,,,,
1980SN120348,,"Mendip Road",,50.922516108,-1.450169698,,,,,,
1980SN120351,,"Millbrook, Oakley Road Tesco",,50.922360695,-1.447724455,,,,,,
1980SN120360,,"King Edward Avenue",,50.92201144,-1.442350756,,,,,,
1980SN120362,,"Clarendon Road",,50.921579773,-1.44046373,,,,,,
1980SN12369B,,"Shirley, Park Street [SE]",,50.922575875,-1.434433664,,,,,,
1980SN120519,,"Southampton Central Station [SA]",,50.908144238,-1.412819069,,,,,,
1980SN120523,,"Art Gallery [HE]",,50.908916576,-1.407276573,,,,,,
1980SN12619E,,"Southampton, Vincents Walk [CK]",,50.903479692,-1.402680946,,,,,,
1980SNA10143,,"Houndwell Park",,50.903017976,-1.402075336,,,,,,
1980SN120980,,"Hoglands Park [CP]",,50.902807828,-1.399674637,,,,,,
1980SNA90830,,"City College",,50.90234618,-1.393864142,,,,,,
1980SNA19721,,"Anglesea Terrace",,50.901153079,-1.390964375,,,,,,
1980SN120652,,"Itchen Bridge (west)",,50.898824552,-1.391065837,,,,,,
1980SN12658B,,"Woolston, Bridge Link Road",,50.898166752,-1.377167417,,,,,,
1980SN120664,,"Fort Road",,50.897548938,-1.372625367,,,,,,
1980SN120710,,"St Anne's Road",,50.896345399,-1.36789229,,,,,,
1980SN120729,,"The Swan",,50.895662344,-1.36299595,,,,,,
1980SN120731,,"Wrights Hill",,50.894193423,-1.359134293,,,,,,
1980SN120735,,"Laxton Close",,50.894721112,-1.355344854,,,,,,
1980SN120739,,"Butts Road Recreation Ground",,50.896035856,-1.352425993,,,,,,
1980SN120695,,"Sholing, Butts Road Tesco",,50.898062147,-1.349724575,,,,,,
1980SN120697,,"Landseer Road",,50.900633216,-1.346361156,,,,,,
1980SN120704,,"Butts Square",,50.902721463,-1.340316343,,,,,,
1980SNA90937,,"Coates Road",,50.90275099,-1.337731924,,,,,,
1980SN120814,,"Parry Road",,50.901187151,-1.339328341,,,,,,
1980SNA90938,,"Sholing, Montague Avenue Shops",,50.900168955,-1.337380319,,,,,,
1980SN120818,,"Montague Close",,50.899979668,-1.335719217,,,,,,
1980SN120821,,"Sullivan Road Park",,50.898185846,-1.333384231,,,,,,
1980SN120823,,"Delius Avenue",,50.897305125,-1.336638869,,,,,,
1980SN120825,,"Valentine Avenue",,50.896106711,-1.340978534,,,,,,
1980SN120806,,"Gainsborough Close",,50.894996378,-1.345018144,,,,,,
1980SN120827,,"Sholing, Portsmouth Road",,50.89422902,-1.349308718,,,,,,
1980SNA09207,,"Aldermoor Turning Circle",,50.939508226,-1.428805826,,,,,,
1980SN120829,,"St Mary's Cemetery",,50.894798058,-1.352997686,,,,,,
1980SN120736,,"Laxton Close",,50.894570996,-1.355844582,,,,,,
1980SN120732,,"Wrights Hill",,50.894232276,-1.35965985,,,,,,
1980SN120730,,"The Swan",,50.895646066,-1.363308992,,,,,,
1980SN120726,,"St Anne's Road",,50.896320116,-1.368205456,,,,,,
1980SNA09185,,"Fort Road",,50.897401005,-1.372507056,,,,,,
1980SN120665,,"St Patrick's Church",,50.897884843,-1.374896016,,,,,,
1980SN120659,,"Woolston, Bridge Link Road",,50.898266193,-1.37726563,,,,,,
1980SNA19739,,"Itchen Bridge (west)",,50.89955497,-1.391454482,,,,,,
1980SNA19722,,"Anglesea Terrace",,50.90120792,-1.391134309,,,,,,
1980SNA90831,,"City College",,50.902157201,-1.39557312,,,,,,
1980SN120899,,"Hoglands Park [CQ]",,50.902837506,-1.400200442,,,,,,
1980SN12441B,,"Art Gallery [HG]",,50.908833122,-1.406779825,,,,,,
1980SN12370B,,"Shirley, Park Street [SC]",,50.922325478,-1.434721242,,,,,,
1980SN120361,,"Clarendon Road",,50.921656269,-1.44141602,,,,,,
1980SN120355,,"King George Avenue / Oakley Road",,50.921786463,-1.444202954,,,,,,
1980SN120350,,"Millbrook, Oakley Road Tesco",,50.922288558,-1.447682627,,,,,,
1980SN120349,,"Mendip Road",,50.922140187,-1.450544031,,,,,,
1980SN120347,,"Cotswold Road",,50.921278385,-1.452773564,,,,,,
1980SN120339,,"Quantock Road",,50.92117677,-1.456046921,,,,,,
1980SN120335,,"Windrush Road",,50.92188243,-1.458898329,,,,,,
1980SN120181,,"Millbrook, Kendal Avenue",,50.924315297,-1.463864066,,,,,,
1980SN120178,,"Sedbergh Road",,50.926834938,-1.464247746,,,,,,
1980SN120175,,"The Saints",,50.930170989,-1.462259994,,,,,,
1980SN120182,,"Millbrook Towers",,50.93012673,-1.458518136,,,,,,
1980SN120185,,"Ullswater Road",,50.928550167,-1.455960972,,,,,,
1980SN120186,,"Borrowdale Road",,50.927695566,-1.453964675,,,,,,
1980SN120006,,"Crabwood Road",,50.928702294,-1.45003989,,,,,,
1980SN120194,,"Maybush Corner",,50.931398798,-1.447873617,,,,,,
1980SN120988,,"Coxford Close",,50.933359977,-1.444520036,,,,,,
1980SN120986,,"Warren Avenue",,50.933904148,-1.439575932,,,,,,
1980SN120979,,"General Hospital, Coxford Road [A]",,50.934840632,-1.434242293,,,,,,
1980SN120085,,"Springford Crescent",,50.936551319,-1.430976761,,,,,,
1980SN120091,,"Lyburn Court",,50.93880832,-1.429113273,,,,,,
1980SN120090,,"Aldermoor Shops",,50.940625098,-1.429176432,,,,,,
1980HAA13388,,"Woburn Road Flyover",,50.943400031,-1.432103057,,,,,,
1980HAA13389,,"Tanners Brook",,50.942274888,-1.437454229,,,,,,
1980SN120010,,"Kinloss Court",,50.943477339,-1.444442667,,,,,,
1980SN120009,,"Blackbushe Close",,50.943476152,-1.447986852,,,,,,
1900HA080203,,"Hounsdown, Spicers Hill",,50.909455193,-1.495126673,,,,,,
1900HA080204,,"Jacobs Walk",,50.906921284,-1.495580741,,,,,,
1900HA080205,,"Valley Road",,50.906127548,-1.490881765,,,,,,
1900HA080206,,"Marchwood Bypass",,50.906121989,-1.48755383,,,,,,
1900HAA92273,,"Bulls Copse Road",,50.901799995,-1.48502997,,,,,,
1900HA080266,,"Pooksgreen, Tavells Lane",,50.89080151,-1.464106527,,,,,,
1900HA080254,,"Woodpecker Drive",,50.89233659,-1.457690812,,,,,,
1900HA080252,,"Bury Road",,50.894852783,-1.453467062,,,,,,
1900HA080257,,"Old Magazine Close",,50.894516284,-1.448835707,,,,,,
1900HA080259,,"The White Horse",,50.891574495,-1.448571837,,,,,,
1900HA080261,,"Marchwood Church",,50.889806345,-1.453113789,,,,,,
1900HA080262,,"Lakeland Gardens",,50.888481337,-1.456299654,,,,,,
1900HA080277,,"Twiggs Lane",,50.886881799,-1.454612301,,,,,,
1900HA080279,,"The Pilgrim Inn",,50.885328853,-1.451360769,,,,,,
1900HA080281,,"North Lodge",,50.883169552,-1.445415719,,,,,,
1900HA080283,,"Veals Lane",,50.881507497,-1.441967046,,,,,,
1900HA080285,,"Garden City",,50.875082587,-1.439201184,,,,,,
1900HA080288,,"Applemore Tesco",,50.864350953,-1.431031519,,,,,,
1900HA080290,,"Cabot Drive",,50.864957521,-1.428182199,,,,,,
1900HA080291,,"Canterbury Drive",,50.864935977,-1.425624716,,,,,,
1900HA080293,,"Caledonia Drive",,50.864290136,-1.422307625,,,,,,
1900HA080295,,"Corsair Drive",,50.864206366,-1.419921467,,,,,,
1900HA080297,,"Corinna Gardens",,50.863090333,-1.421540942,,,,,,
1900HA080300,,"The Sylvans",,50.86175144,-1.423560932,,,,,,
1900HA080303,,"Challenger Way, Oaklands Way",,50.859755921,-1.421908965,,,,,,
1900HA080305,,"Kensington Fields",,50.860901221,-1.418939447,,,,,,
1900HA080307,,"Malvern Drive",,50.86162491,-1.417237065,,,,,,
1900HA080308,,"The Mead",,50.862022348,-1.412957816,,,,,,
1900HA080310,,"Golden Hind Park",,50.859551423,-1.409792011,,,,,,
1900HA080329,,"Highlands Way",,50.858949011,-1.406261848,,,,,,
1900HA080327,,"Hythe Hospital",,50.859167375,-1.403232782,,,,,,
1900HA080325,,"Deerleap Way",,50.860981833,-1.401078355,,,,,,
1900HAA90815,,"Hollybank Crescent",,50.865511486,-1.402327655,,,,,,
1900HA080356,,"Ewart Court",,50.870585637,-1.402788619,,,,,,
1900HA080357,,"Hythe Pier",,50.870713112,-1.399589411,,,,,,
1900HA080359,,"The Marsh",,50.869072631,-1.398843083,,,,,,
1900HA080360,,"Hythe Fire Station",,50.868026013,-1.39855101,,,,,,
1900HA080363,,"Langdown Hill",,50.864587769,-1.399312814,,,,,,
1900HA080326,,"Deerleap Way",,50.860703447,-1.401152962,,,,,,
1900HA080328,,"Hythe Hospital",,50.858944101,-1.403533996,,,,,,
1900HA080330,,"Highlands Way",,50.858473325,-1.408214347,,,,,,
1900HA080311,,"Golden Hind Park",,50.858965652,-1.40954366,,,,,,
1900HA080309,,"The Mead",,50.861434081,-1.412212141,,,,,,
1900HA080306,,"Malvern Drive",,50.861344379,-1.417640959,,,,,,
1900HA080304,,"Kensington Fields",,50.85995379,-1.42010208,,,,,,
1900HA080302,,"Challenger Way, Oaklands Way",,50.859732038,-1.422534418,,,,,,
1900HA080301,,"Beechwood Way",,50.860648018,-1.424100241,,,,,,
1900HA080299,,"The Sylvans",,50.862011437,-1.423401431,,,,,,
1900HA080298,,"Corinna Gardens",,50.862940142,-1.422082745,,,,,,
1900HA080294,,"Caledonia Drive",,50.864536916,-1.421295696,,,,,,
1900HA080292,,"Canterbury Drive",,50.864561988,-1.424549381,,,,,,
1900HA080289,,"Cabot Drive",,50.864894507,-1.42816876,,,,,,
1900HA080287,,"Applemore Tesco",,50.864470133,-1.431498984,,,,,,
1900HA080284,,"Garden City",,50.875640841,-1.43935083,,,,,,
1900HA080282,,"Veals Lane",,50.881760291,-1.44217725,,,,,,
1900HA080280,,"North Lodge",,50.883170699,-1.445657364,,,,,,
1900HA080278,,"The Pilgrim Inn",,50.885284161,-1.451418157,,,,,,
1900HA080276,,"Twiggs Lane",,50.886919691,-1.455024133,,,,,,
1900HA080263,,"Lakeland Gardens",,50.888472875,-1.456413487,,,,,,
1900HA080260,,"Marchwood Church",,50.890143043,-1.452043547,,,,,,
1900HA080258,,"The White Horse",,50.893388728,-1.448095437,,,,,,
1900HA080256,,"Old Magazine Close",,50.894864211,-1.45015395,,,,,,
1900HA080253,,"Bury Road",,50.894843392,-1.45338186,,,,,,
1900HA080255,,"Woodpecker Drive",,50.892184782,-1.457920062,,,,,,
1900HA080269,,"Pooksgreen, Tavells Lane",,50.89113454,-1.464173795,,,,,,
1900HA080270,,"April Cottage",,50.892993572,-1.467579065,,,,,,
1900HA080242,,Sunnyfields,,50.905291017,-1.479241967,,,,,,
1900HA080207,,"Jacobs Gutter Lane",,50.906694294,-1.486822208,,,,,,
1900HA080208,,"Clay Meadow",,50.910215258,-1.489998013,,,,,,
1900HA080029,,"Salisbury Road Shops [J]",,50.919815133,-1.491130828,,,,,,
1980SNA90983,,"Southampton, Albion Place [BC]",,50.901870011,-1.405390004,,,,,,
1900HA080335,,"The Heath",,50.851755794,-1.417135261,,,,,,
1900HA080334,,"St Andrew's Church",,50.852924727,-1.41531653,,,,,,
1900HA080331,,"Dibden Purlieu, Noads Way",,50.857736121,-1.410028028,,,,,,
1900HA080396,,"Butts Ash Lane",,50.854230637,-1.399758348,,,,,,
1900HA080432,,"Netley View, Fawley Road",,50.847085768,-1.393614316,,,,,,
1900HA080434,,"Hardley Roundabout",,50.844331971,-1.392732028,,,,,,
1900HA080436,,"Lime Kiln Lane",,50.839441489,-1.388330803,,,,,,
1900HA080437,,"New Forest Academy",,50.837561771,-1.386565988,,,,,,
1900HA080439,,"Southbourne Avenue",,50.834298762,-1.38339945,,,,,,
1900HA080443,,"Long Lane Junction",,50.832666412,-1.382512153,,,,,,
1900HA080444,,"Holbury, Holbury Drove Shops",,50.830989102,-1.388455428,,,,,,
1900HA080447,,"Foxcroft Drive",,50.827031998,-1.391829486,,,,,,
1900HA080448,,"Whitefield Road",,50.825182655,-1.388985578,,,,,,
1900HA080450,,"Bethany Gospel Hall",,50.824227219,-1.383432679,,,,,,
1900HA080457,,"Rollestone Crossroads",,50.823409293,-1.375052952,,,,,,
1900HA080460,,"Blackfield Primary School",,50.820781126,-1.374619541,,,,,,
1900HA080463,,"Blackfield Crossroads",,50.818625868,-1.371823378,,,,,,
1900HA080465,,"Forresters Road",,50.821943198,-1.368314898,,,,,,
1900HA080471,,"The Pentagon",,50.824536355,-1.362302789,,,,,,
1900HA080474,,"Fawley School",,50.825344965,-1.357251591,,,,,,
1900HA080476,,"Fawley Square",,50.826863718,-1.350571801,,,,,,
1900HA080473,,"Fawley School",,50.825273655,-1.357366151,,,,,,
1900HA080472,,"The Pentagon",,50.824570383,-1.361947389,,,,,,
1900HA080464,,"Forresters Road",,50.820647955,-1.36992235,,,,,,
1900HA080462,,"Blackfield Crossroads",,50.817574647,-1.371993624,,,,,,
1900HA080489,,"Hampton Close",,50.814005871,-1.370565259,,,,,,
1900HA080490,,"Chapel Lane",,50.811410094,-1.371139483,,,,,,
1900HA080492,,"Chalewood Road",,50.809766664,-1.369884171,,,,,,
1900HA080494,,"The Langley Tavern",,50.808428026,-1.368454529,,,,,,
1900HA081080,,"Langley Farm",,50.803103195,-1.364921778,,,,,,
1900HA080478,,Stonehills,,50.822826357,-1.344196566,,,,,,
1900HA080480,,"Badminston Lane",,50.819515082,-1.340651352,,,,,,
1900HA080482,,"Badminston Drove",,50.816170672,-1.336042485,,,,,,
1900HA080484,,"Ower Corner",,50.81464992,-1.33271414,,,,,,
1900HA080485,,"Calshot Close",,50.81160209,-1.326569156,,,,,,
1900HA080487,,"Calshot Beach",,50.809646733,-1.319685281,,,,,,
1900HA080475,,"Fawley Square",,50.826642156,-1.351156996,,,,,,
1900HA080493,,"The Langley Tavern",,50.808392673,-1.368568546,,,,,,
1900HAA91391,,"Chalewood Road",,50.809967551,-1.370449192,,,,,,
1900HA080491,,"Chapel Lane",,50.811311871,-1.371268543,,,,,,
1900HA080488,,"Hampton Close",,50.814466605,-1.370956512,,,,,,
1900HA080461,,"Blackfield Crossroads",,50.818361604,-1.372849004,,,,,,
1900HA080459,,"Blackfield Primary School",,50.821016439,-1.374900327,,,,,,
1900HA080458,,"Rollestone Crossroads",,50.823293309,-1.375224865,,,,,,
1900HA080451,,"Bethany Gospel Hall",,50.823947095,-1.381477143,,,,,,
1900HA080449,,"Whitefield Road",,50.825082256,-1.388702936,,,,,,
1900HA080446,,"Foxcroft Drive",,50.828410435,-1.392322734,,,,,,
1900HA080445,,"Holbury, Holbury Drove Shops",,50.830389155,-1.390664144,,,,,,
1900HA080442,,"Long Lane Junction",,50.83267623,-1.382668223,,,,,,
1900HA080438,,"Southbourne Avenue",,50.834697557,-1.38399062,,,,,,
1900HA080435,,"Lime Kiln Lane",,50.83995879,-1.389232979,,,,,,
1900HA080433,,"Hardley Roundabout",,50.843969599,-1.392703068,,,,,,
1900HA080431,,"Netley View, Fawley Road",,50.847644966,-1.393933772,,,,,,
1900HA080397,,"Butts Ash Lane",,50.853708299,-1.39960878,,,,,,
1900HA080332,,"Dibden Purlieu, Noads Way",,50.857019488,-1.410576944,,,,,,
1900HA080333,,"St Andrew's Church",,50.852879269,-1.415217656,,,,,,
1900HA080336,,"The Heath",,50.851487169,-1.417365897,,,,,,
1900HAA92272,,"Bulls Copse Road",,50.901800023,-1.485219961,,,,,,
1900HA080486,,"Calshot Close",,50.811190324,-1.325340245,,,,,,
1900HA080483,,"Ower Corner",,50.814660697,-1.333026265,,,,,,
1900HA080481,,"Badminston Drove",,50.816189463,-1.336184168,,,,,,
1900HA080479,,"Badminston Lane",,50.819561484,-1.340906226,,,,,,
1900HA080477,,Stonehills,,50.822900046,-1.344507867,,,,,,
1980SN12616C,,"Southampton, Vincents Walk [CI]",,50.903910939,-1.402604323,,,,,,
1980SNA09464,,"Southampton, Westquay [BG]",,50.902423514,-1.405410688,,,,,,
1980HA120626,,"Holyrood Church [BJ]",,50.899987146,-1.4037637,,,,,,
1980SNA90889,,"Oxford Street",,50.899457867,-1.400499806,,,,,,
1980SN120634,,"Challis Court",,50.900434111,-1.397741721,,,,,,
1980SNA90891,,"Terminus Terrace",,50.900773848,-1.395861214,,,,,,
1980SN12658A,,"Woolston, Bridge Link Road",,50.898256671,-1.377166218,,,,,,
1980SN120661,,"Johns Road",,50.897975446,-1.378392868,,,,,,
1980SN120657,,"Radstock Road",,50.899510102,-1.377817855,,,,,,
1980SN120654,,"Ailsa Lane",,50.901725329,-1.376707554,,,,,,
1980SN120571,,"Peartree, Osterley Road",,50.906006696,-1.37352152,,,,,,
1980SN120569,,"Leslie Loader House",,50.907294726,-1.372238426,,,,,,
1980SN120566,,"Westwood House",,50.909119984,-1.369710037,,,,,,
1980SN120563,,"Freemantle Common",,50.911399484,-1.366351446,,,,,,
1980SN120562,,"Spring Road",,50.913029276,-1.365091805,,,,,,
1980SN120575,,"Bitterne Leisure Centre",,50.914142364,-1.356513389,,,,,,
1980SN120579,,"Ruby Road",,50.912210775,-1.353581395,,,,,,
1980SN120594,,"Upper Deacon Road",,50.910282249,-1.349597058,,,,,,
1980SN120597,,"North East Road",,50.908472234,-1.345924293,,,,,,
1980SN120601,,"Hinkler Road",,50.906661623,-1.342166486,,,,,,
1980SN120700,,"Antelope Park",,50.905250716,-1.339142852,,,,,,
1980SN120703,,"Sholing, Orpen Road",,50.903327846,-1.336240448,,,,,,
1980SN120345,,"Orpen Road",,50.903816634,-1.336802364,,,,,,
1980SN120701,,"Antelpoe Park",,50.905308125,-1.339753587,,,,,,
1980SN120598,,"Hinkler Road",,50.907209291,-1.343609477,,,,,,
1980SN120596,,"North East Road",,50.908992165,-1.347239763,,,,,,
1980SN120595,,"Upper Deacon Road",,50.910347092,-1.34993752,,,,,,
1980SN120578,,"Ruby Road",,50.912503232,-1.354430799,,,,,,
1980SN12922A,,"Bitterne Shops [BB]",,50.914951659,-1.36142407,,,,,,
1980SN120564,,"Freemantle Common",,50.912320932,-1.365471266,,,,,,
1980SN120565,,"Westwood House",,50.90955904,-1.368752002,,,,,,
1980SN120570,,"Leslie Loader House",,50.906828908,-1.372571805,,,,,,
1980SN120880,,"Peartree Church",,50.904304722,-1.374753198,,,,,,
1980SN120655,,"Ailsa Lane",,50.902002407,-1.376390994,,,,,,
1980SN120656,,"Radstock Road",,50.899626011,-1.377631447,,,,,,
1980SN120660,,"Johns Road",,50.898083348,-1.378391433,,,,,,
1980SNA90892,,"Itchen Bridge (west)",,50.898898965,-1.393268975,,,,,,
1980SNA90873,,"Oxford Street",,50.899289088,-1.400466707,,,,,,
1980HA120625,,"Holyrood Church [BK]",,50.900060242,-1.403990293,,,,,,
1980SNA90981,,"Southampton, Albion Place [BE]",,50.901749997,-1.405149919,,,,,,
1980SNA90984,,"Southampton, Albion Place [BA]",,50.901850029,-1.405509999,,,,,,
1900HA080035,,"Water Lane Shops",,50.918611381,-1.491414245,,,,,,
1900HA080038,,"Sunset Road",,50.919263861,-1.496727737,,,,,,
1900HA080040,,"Hammonds Lane",,50.920311444,-1.499860505,,,,,,
1900HA080042,,"Hammonds Green",,50.921143558,-1.503095294,,,,,,
1900HA080043,,"Totton College",,50.920398809,-1.50772685,,,,,,
1900HA080045,,"Calmore Service Station",,50.922555417,-1.513793348,,,,,,
1900HAA91117,,"Stonechat Drive",,50.922941708,-1.515866513,,,,,,
1900HAA91119,,"West Totton, Morrisons",,50.923343282,-1.521667143,,,,,,
1900HA080102,,"West Totton, Goodies",,50.915142825,-1.52182229,,,,,,
1900HA080104,,"Crabbs Way",,50.915468153,-1.517835947,,,,,,
1900HAA91768,,"Hazel Farm Road",,50.916309312,-1.512506998,,,,,,
1900HA080108,,"Graddidge Way",,50.916807742,-1.509130361,,,,,,
1900HA080110,,"Calmore Corner",,50.917868657,-1.504823021,,,,,,
1900HA080044,,"Totton College",,50.920337003,-1.507997806,,,,,,
1900HA080041,,"Hammonds Green",,50.921169748,-1.502910067,,,,,,
1900HA080039,,"Hammonds Lane",,50.920128069,-1.499037334,,,,,,
1900HA080037,,"Sunset Road",,50.918926188,-1.495579063,,,,,,
1900HA080036,,"Water Lane Shops",,50.918710169,-1.491384716,,,,,,
1900HA080027,,"Morpeth Avenue",,50.92100981,-1.492896146,,,,,,
1900HA080025,,"Testwood Lane",,50.923571403,-1.496766655,,,,,,
1900HA080024,,"Testwood Co-op",,50.926210266,-1.499811518,,,,,,
1900HA080021,,"Stanley Road",,50.929314211,-1.502282599,,,,,,
1900HA080019,,"Testwood Crescent",,50.932222414,-1.507388663,,,,,,
1900HA080056,,"Calmore, Embley Close",,50.931188858,-1.509662119,,,,,,
1900HA080057,,"Bearslane Close",,50.928057067,-1.509083185,,,,,,
1900HA080058,,"Mortimer Close",,50.925562918,-1.506178428,,,,,,
1900HA080059,,"Sarum Compton House",,50.925264967,-1.510165429,,,,,,
1900HA080060,,"Bowater Way",,50.924294654,-1.51189845,,,,,,
1900HA080061,,"Tudor Close",,50.924433501,-1.515637622,,,,,,
1900HA080063,,"Richmond Close",,50.928002352,-1.517535706,,,,,,
1900HA080064,,"Friars Croft",,50.93053897,-1.515545789,,,,,,
1900HA080065,,Stocklands,,50.931826018,-1.513654062,,,,,,
1900HA080055,,"Calmore, Coppice Road",,50.932248493,-1.511458214,,,,,,
1900HA080020,,"Testwood Crescent",,50.931449919,-1.505461549,,,,,,
1900HA080022,,"Stanley Road",,50.929078599,-1.501858236,,,,,,
1900HA080023,,"Testwood Co-op",,50.927508098,-1.500494815,,,,,,
1900HA080026,,"Testwood Lane",,50.922809323,-1.49520987,,,,,,
1900HA080028,,"Salisbury Road Shops [K]",,50.920203709,-1.491567613,,,,,,
1980SN120662,,"Norton Close",,50.899911747,-1.373887683,,,,,,
1980SN120666,,"Ludlow Academy",,50.900742237,-1.37113197,,,,,,
1980SN120668,,"Wodehouse Road",,50.902188004,-1.369038928,,,,,,
1980SNA90917,,"Knighton Road",,50.904460022,-1.365729973,,,,,,
1980SN120674,,"Spakes Corner",,50.904671077,-1.362673965,,,,,,
1980SN120588,,"Heath Road",,50.906672886,-1.360385276,,,,,,
1980SN120587,,"Merryoak Road",,50.909239956,-1.360530034,,,,,,
1980SNA19712,,"Freemantle Common Road",,50.911927981,-1.363854925,,,,,,
1980SN120450,,"Chichester Road",,50.917932608,-1.358950664,,,,,,
1980SN120447,,"Dean Road",,50.92026805,-1.356841506,,,,,,
1980SN121063,,"Hatley Road",,50.92152643,-1.353480827,,,,,,
1980SN121060,,"St Francis Avenue",,50.922012171,-1.348651104,,,,,,
1900HA030447,,"Beauworth Avenue",,50.923126497,-1.343698622,,,,,,
1980HA120462,,"Melchet Road",,50.922860376,-1.34274913,,,,,,
1980SN120467,,"Harefield, Bentley Green",,50.921574015,-1.341218923,,,,,,
1980HA120466,,"Meon Court",,50.919698705,-1.335452822,,,,,,
1980SN120468,,"Faringdon Road",,50.917865093,-1.337186032,,,,,,
1980SN120470,,"Somerset Avenue",,50.917924005,-1.341783996,,,,,,
1980SN120472,,"The Exford Arms",,50.917158996,-1.344323107,,,,,,
1980SN120473,,"Harefield, Sunningdale Gardens",,50.915346576,-1.34665303,,,,,,
1980SNA90939,,"Spring Road, Rosoman Road",,50.90190367,-1.365355839,,,,,,
1980SNA90941,,"Spakes Corner",,50.904472869,-1.362605562,,,,,,
1980SNA19711,,"Freemantle Common Road",,50.912141423,-1.363880607,,,,,,
1980SNA19708,,"Merryoak Road",,50.909425239,-1.360504028,,,,,,
1980SN120589,,"Heath Road",,50.906516991,-1.360325971,,,,,,
1980SN120675,,"Spakes Corner",,50.904609008,-1.36283495,,,,,,
1980SN120673,,"Knighton Road",,50.904639052,-1.365049446,,,,,,
1980SNA90915,,"Bishops Crescent",,50.90320798,-1.367468049,,,,,,
1980SN120667,,"Ludlow Academy",,50.899962395,-1.371597522,,,,,,
1980SN120906,,"Norton Close",,50.899707517,-1.372695915,,,,,,
1980SN120872,,"Vineyard Close",,50.899935039,-1.376560801,,,,,,
1980SNA90964,,"Spakes Corner",,50.904116388,-1.362750511,,,,,,
1980SNA90940,,"Spring Road, Rosoman Road",,50.902073114,-1.364913679,,,,,,
1980SN12618A,,"Southampton, Vincents Walk [CG]",,50.904692943,-1.402537432,,,,,,
1980SN120442,,"Townhill Way, Bramble Mews",,50.921686325,-1.356380923,,,,,,
1900HA030457,,"Cerne Close",,50.926687241,-1.353323951,,,,,,
1900HA030454,,"Harbourne Gardens",,50.930523561,-1.354323776,,,,,,
1900HA030452,,"Chartwell Green Shops",,50.933335952,-1.352714934,,,,,,
1900HA030450,,"Allington Lane Roundabout",,50.933815158,-1.349525158,,,,,,
1900HA030389,,Barnsland,,50.932208055,-1.346758441,,,,,,
1900HA030387,,"West End, Midlands Estate",,50.928883334,-1.342393934,,,,,,
1900HA030385,,"West End Asda",,50.927642304,-1.336022674,,,,,,
1900HA030384,,"Hilldene Centre",,50.927420717,-1.331856796,,,,,,
1900HA030379,,"The Pavillions",,50.927309985,-1.327135006,,,,,,
1900HA030564,,"Moorgreen Hospital",,50.927223992,-1.323595998,,,,,,
1900HA030382,,"Shaw Road",,50.926475245,-1.319178517,,,,,,
1900HA030363,,"Birchwood Gardens",,50.923473918,-1.302775214,,,,,,
1900HA030362,,"Caravan Park",,50.925313901,-1.302192823,,,,,,
1900HA030361,,"Drummond Community Centre",,50.925978918,-1.300617758,,,,,,
1900HA030358,,"Stirling Crescent",,50.925537442,-1.297479937,,,,,,
1900HA030355,,"Elliot Rise",,50.927329612,-1.296428482,,,,,,
1900HA030352,,"Watkin Road",,50.930332555,-1.294846389,,,,,,
1900HA030351,,"Hedge End Rail Station",,50.932076079,-1.294677732,,,,,,
1900HA030349,,"Martley Gardens",,50.931914591,-1.297725431,,,,,,
1900HA030348,,"Marlborough Gardens",,50.933405052,-1.301844104,,,,,,
1900HA030345,,"Peppercorn Way",,50.934215663,-1.30507661,,,,,,
1900HAA13695,,"Berrywood Business Village",,50.933262636,-1.308136151,,,,,,
1900HA030344,,"Dowd's Farm Park",,50.931024801,-1.308354328,,,,,,
1900HA030342,,"Bradbeers Retail Park",,50.92565403,-1.310984924,,,,,,
1900HA030381,,"Shaw Road",,50.926672189,-1.320570042,,,,,,
1900HA030380,,"Moorgreen Hospital",,50.927117984,-1.324561813,,,,,,
1900HA030383,,"Hilldene Centre",,50.927303825,-1.331858469,,,,,,
1900HA030386,,"West End Asda",,50.927617592,-1.336421434,,,,,,
1900HA030388,,"West End, Midlands Estate",,50.928767322,-1.34255209,,,,,,
1900HA030390,,Barnsland,,50.932605761,-1.347122861,,,,,,
1900HA030451,,"Allington Lane Roundabout",,50.933563231,-1.349500209,,,,,,
1900HA030453,,"Chartwell Green Shops",,50.932549956,-1.353256916,,,,,,
1900HA120786,,"Harbourne Gardens",,50.929340051,-1.353329871,,,,,,
1900HA030456,,"Cerne Close",,50.926891609,-1.352880032,,,,,,
1980SN120443,,"Townhill Way, Bramble Mews",,50.92135402,-1.35645664,,,,,,
1980SN120449,,"Dean Road",,50.920222387,-1.356714096,,,,,,
1980SN120451,,"Chichester Road",,50.917456823,-1.359099456,,,,,,
1980SN120520,,"Southampton Central Station [SF]",,50.907156772,-1.413158604,,,,,,
1980SN120737,,"Weston Infant School",,50.892584193,-1.355943067,,,,,,
1980SN120741,,"The Gardeners Arms",,50.890636494,-1.353353887,,,,,,
1980SN122003,,"Tenterton Avenue",,50.888841762,-1.352411969,,,,,,
1900HA030525,,"Pegasus Avenue",,50.882299686,-1.345153458,,,,,,
1900HA030527,,"Westwood Nature Reserve",,50.880560089,-1.349257391,,,,,,
1900HA030529,,"St Edwards Road",,50.879307414,-1.352003941,,,,,,
1900HA030530,,"New Road",,50.877321422,-1.355499568,,,,,,
1900HA030532,,"York Road",,50.875017074,-1.355090741,,,,,,
1900HA030535,,"New Road",,50.87361352,-1.351713346,,,,,,
1900HA030536,,"Netley, Denzil Avenue",,50.874542405,-1.348957421,,,,,,
1900HA030539,,"Netley Rail Station",,50.874881397,-1.343651338,,,,,,
1900HA030520,,"Abbeyfields Close",,50.876359128,-1.33780317,,,,,,
1900HA030519,,"St Mary's Church",,50.876664003,-1.332862993,,,,,,
1900HAA19442,,"Satchell Lane",,50.8747042,-1.328304091,,,,,,
1900HA030501,,Broadway,,50.873301395,-1.328310034,,,,,,
1900HAA19444,,"Hamble Sports Ground",,50.867703822,-1.327580443,,,,,,
1900HA030505,,"Verdon Avenue",,50.86382287,-1.328247252,,,,,,
1900HA030507,,"Beaulieu Road",,50.861297139,-1.326891083,,,,,,
1900HA030509,,"Hamble Fire Station",,50.859128808,-1.32203474,,,,,,
1900HA030511,,"Copse Lane",,50.858881054,-1.319637193,,,,,,
1900HA030512,,"Hamble Square",,50.859097004,-1.315044873,,,,,,
1900HA030510,,"Copse Lane",,50.858851456,-1.320731632,,,,,,
1900HA030508,,"Hamble Fire Station",,50.859399375,-1.323721578,,,,,,
1900HA030506,,"Beaulieu Road",,50.861534038,-1.327427605,,,,,,
1900HA030504,,"Verdon Avenue",,50.86397565,-1.328230848,,,,,,
1900HA030502,,"Hamble Sports Ground",,50.867893387,-1.327705613,,,,,,
1900HA030500,,Broadway,,50.873572294,-1.328505115,,,,,,
1900HAA19443,,"Satchell Lane",,50.874885589,-1.328571527,,,,,,
1900HA030518,,"St Mary's Church",,50.876589009,-1.332658965,,,,,,
1900HAA92287,,"Abbeyfields Close",,50.876208885,-1.336729645,,,,,,
1900HA030538,,"Netley Rail Station",,50.87452324,-1.343926407,,,,,,
1900HA030537,,"Denzil Avenue",,50.874168268,-1.347981965,,,,,,
1900HA030534,,"New Road",,50.873239568,-1.352386508,,,,,,
1900HA030533,,"York Road",,50.874556683,-1.354770202,,,,,,
1900HA030531,,"New Road",,50.877286866,-1.355755887,,,,,,
1900HA030528,,"St Edwards Road",,50.879798731,-1.351414345,,,,,,
1900HA030526,,"Westwood Nature Reserve",,50.880738342,-1.348970618,,,,,,
1900HA030524,,"Pegasus Avenue",,50.882425014,-1.345052196,,,,,,
1980SN122002,,"Tenterton Avenue",,50.889410612,-1.3528306,,,,,,
1980SN120742,,"The Gardeners Arms",,50.890862785,-1.353620889,,,,,,
1980SN120738,,"Weston Infant School",,50.892457915,-1.355873718,,,,,,
1980HAA13647,,"Southampton, Westquay [BF]",,50.902496245,-1.405566195,,,,,,
1980HA120324,,"Meggeson Avenue, Townhill Way",,50.92635342,-1.354751422,,,,,,
1980SNA90924,,"Wakefield Road",,50.928621499,-1.356740593,,,,,,
1980SNA90901,,"Cornwall Road",,50.927990205,-1.35804413,,,,,,
1980SNA90900,,"Chester Road",,50.924614189,-1.360623142,,,,,,
1980SNA90912,,"Barton Crescent",,50.924920793,-1.362425897,,,,,,
1980SN120316,,"Midanbury, Witts Hill Shops",,50.925928033,-1.364091074,,,,,,
1980SN120314,,"Cornwall Road",,50.928678268,-1.365476506,,,,,,
1980SN120297,,"Northfield Road",,50.931686419,-1.367997004,,,,,,
1980SN120290,,"Oaktree Road, Hop Inn",,50.932857427,-1.37003032,,,,,,
1980SN120775,,"River Walk",,50.933550563,-1.370163266,,,,,,
1980SN120774,,"Broadwater Road",,50.934514868,-1.365567889,,,,,,
1980SN120773,,"Townhill Park, Pinefield Road",,50.93264513,-1.362391487,,,,,,
1980SN120319,,"Community Centre",,50.930659271,-1.359373461,,,,,,
1980SNA90907,,"Benhams Road",,50.929281971,-1.357471412,,,,,,
1980HA120322,,"Wakefield Road",,50.928665675,-1.356597692,,,,,,
1980HA120323,,"Meggeson Avenue, Townhill Way",,50.926705828,-1.355059577,,,,,,
1980SN120747,,"Weston, Barnfield Road",,50.889486306,-1.368297867,,,,,,
1980SN120752,,"Kipling Court",,50.888934932,-1.366115899,,,,,,
1980SN120754,,"Poulner Close",,50.887930662,-1.361693904,,,,,,
1980SN120755,,"Winchfield Close",,50.887220741,-1.360139786,,,,,,
1980SN120756,,"Drayton Close",,50.885969039,-1.36146481,,,,,,
1980SN120757,,"Fullerton Close",,50.885385123,-1.363221351,,,,,,
1980SN121020,,"Hurstbourne Place",,50.885264632,-1.365867153,,,,,,
1980SN120753,,"Weston, International Way",,50.886714812,-1.36796571,,,,,,
1980SN120751,,"Kingsclere Close",,50.888715609,-1.367128279,,,,,,
1980SN120748,,"Squires Walk",,50.888571581,-1.370428555,,,,,,
1980HAA13652,,"Ticonderoga Gardens",,50.888483535,-1.37244854,,,,,,
1980HA120720,,"Swift Road",,50.891223012,-1.375198418,,,,,,
1980SN120718,,"Church Road",,50.893191695,-1.378442303,,,,,,
1980SNA90884,,"The Ship Inn",,50.894096085,-1.381103366,,,,,,
1980SNA90886,,"Centenary Quay",,50.895026089,-1.381816208,,,,,,
1980SN120711,,"Woolston Health Clinic",,50.897081086,-1.381006939,,,,,,
1980SN120214,,"Winchester Road",,50.926695287,-1.436475328,,,,,,
1980SN120211,,"Warren Crescent",,50.928968446,-1.437941941,,,,,,
1980SN120210,,"Jessamine Road",,50.930826661,-1.439143316,,,,,,
1980SN120080,,"Laundry Road",,50.932765927,-1.440372274,,,,,,
1980SN120088,,"Aldermoor Road, Shops",,50.940450747,-1.43030295,,,,,,
1980SN120071,,"Springford Road",,50.940720159,-1.433929019,,,,,,
1980SN120070,,"Myrtle Road",,50.93984017,-1.439789262,,,,,,
1980SN120066,,"Olive Road",,50.938862326,-1.444042205,,,,,,
1980SN120061,,"Alder Road",,50.938148365,-1.447082129,,,,,,
1980SN120055,,Baronsmead,,50.936331677,-1.454689017,,,,,,
1980SN120053,,"Corbiere Close",,50.935494126,-1.458285064,,,,,,
1980SN120042,,"Lower Brownhill Road",,50.934549674,-1.462124139,,,,,,
1900HAA92171,,"Adanac Health Campus",,50.934499996,-1.467099966,,,,,,
1900HAA91092,,"Adanac Park",,50.93587002,-1.469259995,,,,,,
1980SN120712,,"Keswick Road",,50.896537049,-1.380160988,,,,,,
1980SNA90885,,"Centenary Quay",,50.895590544,-1.381424824,,,,,,
1980SNA09314,,"The Ship Inn",,50.894167719,-1.381045543,,,,,,
1980SN120719,,"Church Road",,50.892926161,-1.377550087,,,,,,
1980HA120721,,"Swift Road",,50.891493908,-1.375408062,,,,,,
1980HAA13653,,"Mayfield Garage",,50.889656677,-1.373214732,,,,,,
1980HA120746,,"Duncan Close",,50.888029279,-1.371587419,,,,,,
1900HAA92170,,"Adanac Health Campus",,50.934699954,-1.466600026,,,,,,
1980SN120041,,"Boniface Crescent",,50.934869253,-1.461223902,,,,,,
1980SN120052,,"Corbiere Close",,50.935425158,-1.458926266,,,,,,
1980SN120054,,Baronsmead,,50.936298033,-1.45518751,,,,,,
1980SN120063,,"Olive Road",,50.938670321,-1.445268459,,,,,,
1980SN120069,,"Aldermoor Avenue",,50.939498206,-1.441615117,,,,,,
1980SNA90943,,"Myrtle Road",,50.940053996,-1.439373949,,,,,,
1980SN120065,,"Springford Road",,50.940673406,-1.433559534,,,,,,
1980SN120087,,"Aldermoor Road, Shops",,50.940409988,-1.429321392,,,,,,
1980SN120081,,"Laundry Road",,50.933279352,-1.440551112,,,,,,
1980SN120209,,"Jessamine Road",,50.93141216,-1.439349726,,,,,,
1980SN120213,,"Warren Crescent",,50.928227959,-1.437296328,,,,,,
1980SN121040,,"Redbridge Hill, Irving Road",,50.926491815,-1.444687594,,,,,,
1980SN121036,,"Redbridge Fire Station",,50.926640588,-1.44761689,,,,,,
1980SN121039,,"Holy Family Church",,50.92676258,-1.450603434,,,,,,
1980SN121066,,"Severn Road",,50.922282913,-1.456062484,,,,,,
1980SN121068,,"Oakley Road",,50.924665015,-1.453943223,,,,,,
1980SN121067,,"Wimpson Lane, Redbridge Hill",,50.926519289,-1.45241331,,,,,,
1980SN121041,,"Holy Family Church",,50.926859483,-1.450175437,,,,,,
1980SN121038,,"Redbridge Fire Station",,50.92681399,-1.448155522,,,,,,
1980SN121037,,"Redbridge Hill, Irving Road",,50.926638997,-1.445383038,,,,,,
1980SN120599,,"Springwell School",,50.907482598,-1.342638492,,,,,,
1980SN120605,,"Byron Road",,50.908298992,-1.340430975,,,,,,
1980SN120606,,"Tatwin Crescent",,50.909103961,-1.33675571,,,,,,
1980SN120608,,"Medwall Green",,50.908824586,-1.335067129,,,,,,
1980SN120709,,"Chettle Road",,50.906572334,-1.332766725,,,,,,
1980SN120707,,"Dumbletons Towers",,50.904427903,-1.332029391,,,,,,
1980SNA09412,,"Meredith Towers",,50.904145441,-1.329814848,,,,,,
1980SN121059,,"Thornhill, Burgoyne Road",,50.903008705,-1.330741327,,,,,,
1980SN120708,,"Dumbletons Towers",,50.904592681,-1.332539019,,,,,,
1980SN120609,,"Chettle Road",,50.906833177,-1.33277722,,,,,,
1980SN120607,,"Medwall Green",,50.908036792,-1.334111193,,,,,,
1980SN120604,,"Tatwin Crescent",,50.908840905,-1.337939965,,,,,,
1980SN120603,,"Byron Road",,50.90813757,-1.340780294,,,,,,
1980SN120600,,"Springwell School",,50.907454982,-1.342525099,,,,,,
1980SN120766,,"Kingsland Market",,50.904720596,-1.397417223,,,,,,
1980HA120611,,"Thornhill, Fairfax Court",,50.912134301,-1.328860947,,,,,,
1980HA120612,,"Holcroft Road",,50.909214101,-1.327708173,,,,,,
1980SN120614,,"Ellwood Avenue",,50.90764872,-1.329152988,,,,,,
1980SN120602,,"High Firs Road",,50.90638792,-1.343066351,,,,,,
1980SN120699,,"Gladstone Road",,50.905258418,-1.345300876,,,,,,
1980SN120694,,"Sholing, Drove Road",,50.903737601,-1.348322944,,,,,,
1980SN120692,,"Alfriston Gardens",,50.902394723,-1.351015257,,,,,,
1980SN120687,,"South East Road",,50.900110316,-1.354203939,,,,,,
1980SN120690,,"St Monica School",,50.898867011,-1.356892937,,,,,,
1980SN120764,,"Millers Pond",,50.897491917,-1.360454124,,,,,,
1980SN120678,,"Sholing Rail Station",,50.897213978,-1.363899062,,,,,,
1980SN120653,,"Itchen Bridge (west)",,50.898390836,-1.392393942,,,,,,
1980HA120642,,"Ocean Village",,50.896934169,-1.394147663,,,,,,
1980SNA13767,,"Town Quay, Platform Tavern [TC]",,50.896063842,-1.403259228,,,,,,
1980SNA13768,,"Telephone House [TE]",,50.897282613,-1.404196369,,,,,,
1980SNA13769,,"Telephone House [TF]",,50.897461799,-1.404066107,,,,,,
1980SNA13766,,"Town Quay, Platform Tavern [TD]",,50.896234035,-1.403129081,,,,,,
1980HA120641,,"Ocean Village",,50.897041187,-1.393975641,,,,,,
1980SN120676,,"Sholing Rail Station",,50.89710979,-1.364583017,,,,,,
1980SN120677,,"Millers Pond",,50.897563541,-1.360396265,,,,,,
1980SN120689,,"St Monica School",,50.899117433,-1.356791512,,,,,,
1980SN120684,,"South East Road",,50.900853412,-1.353610616,,,,,,
1980HAA13665,,"Alfriston Gardens",,50.902600191,-1.350770642,,,,,,
1980SN120693,,"Sholing, Drove Road",,50.9039698,-1.348035271,,,,,,
1980SN120698,,"Gladstone Road",,50.905001401,-1.34597291,,,,,,
1980SNA19479,,"High Firs Road",,50.906317825,-1.343394451,,,,,,
1980SN120615,,"Ellwood Avenue",,50.907783025,-1.329051498,,,,,,
1980HA120613,,"Holcroft Road",,50.909340395,-1.327777471,,,,,,
1980HA120610,,"Thornhill, Fairfax Court",,50.912235334,-1.329229322,,,,,,
1980SN120951,,"Alexandra Road",,50.9117467,-1.415703897,,,,,,
1980SN120506,,"Howard Road",,50.914137693,-1.415503276,,,,,,
1980SN120392,,"Hill Lane, Raymond Road",,50.918453662,-1.415420781,,,,,,
1980SN120389,,"Wilton Road",,50.92079191,-1.415462628,,,,,,
1980SN120248,,"Kineton Road",,50.924162587,-1.41516431,,,,,,
1980SN120246,,"Richard Taunton College, Hill Lane",,50.926602021,-1.415660191,,,,,,
1980SN120242,,"Leicester Road",,50.930774429,-1.417443575,,,,,,
1980SN120100,,"Bassett Sainsbury's",,50.93332388,-1.418365186,,,,,,
1980SN120233,,"The Malvern",,50.932274317,-1.422505032,,,,,,
1980SN120231,,"Vincent Avenue",,50.930133653,-1.426060458,,,,,,
1980SN120225,,"Dale Road",,50.929674155,-1.429552317,,,,,,
1980SN120221,,"General Hospital, A&E [H]",,50.932203466,-1.431897832,,,,,,
1980SN120082,,"General Hospital, Tremona Road [D]",,50.934565978,-1.433235229,,,,,,
1980SN120084,,"General Hospital, Tremona Road [C]",,50.934119432,-1.432016808,,,,,,
1980SN120222,,"General Hospital, A&E [G]",,50.93292088,-1.431490645,,,,,,
1980SN120223,,"Dale Valley Road",,50.931064461,-1.430673705,,,,,,
1980SN120228,,"The Range",,50.929262982,-1.42821979,,,,,,
1980SN120232,,"The Malvern",,50.93186575,-1.423534655,,,,,,
1980SN120099,,"Bassett Sainsbury's",,50.933377265,-1.418250676,,,,,,
1980SN120243,,"Leicester Road",,50.930530513,-1.417218945,,,,,,
1980SN120245,,"Richard Taunton College, Hill Lane",,50.927803987,-1.41606304,,,,,,
1980SN120247,,"Kineton Road",,50.924746632,-1.415071623,,,,,,
1980SN120388,,"Wilton Road",,50.921482648,-1.415126758,,,,,,
1980SN120391,,"Northland Gardens",,50.919217688,-1.415354307,,,,,,
1980SN120394,,"Howard Road",,50.915557772,-1.41535747,,,,,,
1980SN120502,,"Hill Farm Road",,50.912977666,-1.415503575,,,,,,
1980SN120950,,"Alexandra Road",,50.911278338,-1.415553297,,,,,,
1980SN12619C,,"Southampton, Vincents Walk [CO]",,50.904543788,-1.40326465,,,,,,
1980SN12524B,,"Cenotaph [HC]",,50.909524723,-1.404850895,,,,,,
1980SNA90908,,"Kings Park Road",,50.910907576,-1.402699712,,,,,,
1980SN120539,,"Royal South Hants Hospital",,50.911675582,-1.399901995,,,,,,
1980SN120537,,"Denzil Avenue",,50.915027197,-1.397654042,,,,,,
1980SN120409,,"Bevois Valley Aldi",,50.917786406,-1.395626824,,,,,,
1980SN120273,,"Portswood Broadway [PA]",,50.926404305,-1.391033256,,,,,,
1980SN120302,,"Belmont Road",,50.925293923,-1.388486688,,,,,,
1980HA120304,,"St Denys Church",,50.924857107,-1.382374387,,,,,,
1980HA120306,,"Priory Road",,50.924532072,-1.38042947,,,,,,
1980SN120308,,"Bitterne Park Triangle",,50.924863012,-1.375821047,,,,,,
1980SN120311,,"Nursery Road",,50.927390157,-1.376763191,,,,,,
1980SN120312,,"Wellington Road",,50.929029125,-1.375517584,,,,,,
1980SN120292,,"Dimond Road",,50.931212232,-1.373453485,,,,,,
1980SN120291,,"Oaktree Road, Hop Inn",,50.932663289,-1.370715999,,,,,,
1980SNA90906,,"Montgomery Road",,50.921832939,-1.35851296,,,,,,
1980SN120438,,"Vale Drive",,50.923384882,-1.361109493,,,,,,
1980SN120293,,"Dimond Road",,50.931442507,-1.372795813,,,,,,
1980SN120295,,"Wellington Road",,50.929279679,-1.375286561,,,,,,
1980SN120313,,"Ashtree Road",,50.926916201,-1.375574319,,,,,,
1980SN120296,,"Bond Road",,50.92543553,-1.374470109,,,,,,
1980SN120310,,"Bitterne Park Triangle",,50.924352971,-1.377187906,,,,,,
1980HA120307,,"Priory Road",,50.924442682,-1.380530252,,,,,,
1980HA120305,,"St Denys Church",,50.924896232,-1.382971444,,,,,,
1980HA120303,,"Belmont Road",,50.925461211,-1.389523578,,,,,,
1980SN120274,,"Portswood, The Mitre [PK]",,50.926419544,-1.390506604,,,,,,
1980SN120411,,"Forster Road",,50.919295346,-1.395280081,,,,,,
1980SN120410,,"Bevois Valley Aldi",,50.916905866,-1.395766254,,,,,,
1980SN120538,,"Denzil Avenue",,50.913827562,-1.398693691,,,,,,
1980SN120540,,"Royal South Hants Hospital",,50.911728584,-1.399716402,,,,,,
1980SN120881,,"Kings Park Road",,50.910752968,-1.402360322,,,,,,
1980SN12531A,,"Above Bar [AE]",,50.906187063,-1.404566322,,,,,,
1980SN120393,,"Greville Road",,50.918878444,-1.417648963,,,,,,
1980SN120386,,"St John's Church",,50.920297656,-1.420946044,,,,,,
1980SN120385,,"Bridlington Avenue",,50.923055728,-1.424056078,,,,,,
1980SN120898,,"Twyford Avenue",,50.924144629,-1.42604875,,,,,,
1980SN120375,,"Vincent Road",,50.921278908,-1.430309367,,,,,,
1980SN120374,,"Twyford Avenue",,50.921651943,-1.430149313,,,,,,
1980SN120373,,"Twyford Avenue",,50.923986477,-1.426804762,,,,,,
1980SN120238,,"Pirrie Close",,50.925346979,-1.423686326,,,,,,
1980SN120236,,"Colebrook Avenue",,50.92711458,-1.424717415,,,,,,
1980SN120234,,"Pentire Avenue",,50.928026627,-1.421846158,,,,,,
1980SN120244,,"Richard Taunton College, Bellemoor Road",,50.927299374,-1.416647467,,,,,,
1980SN120096,,"Rockleigh Road",,50.935326163,-1.419564099,,,,,,
1980SN120094,,"Dunkirk Road",,50.937198919,-1.423667993,,,,,,
1980SNA90895,,"Dale Valley Road Flats",,50.935486063,-1.426450006,,,,,,
1980SN120P11,,"Hollybrook Avenue",,50.933723031,-1.428179359,,,,,,
1980SNA90896,,"Dale Valley Close",,50.932004516,-1.429822656,,,,,,
1980SN120P12,,"Grafton Gardens",,50.942582653,-1.4249394,,,,,,
1980SN120P13,,"Lordswood, Balmoral Close",,50.94600384,-1.429437984,,,,,,
1980SNA09237,,"Sandpiper Road",,50.946695276,-1.432931238,,,,,,
1980SN120P14,,"Sandpiper Road",,50.947481535,-1.437462592,,,,,,
1980SNA09238,,"Lordswood, Gannet Close",,50.944906997,-1.433180729,,,,,,
1980SNA40502,,"Lordshill Community Centre",,50.943249726,-1.451462517,,,,,,
1980SNA40501,,"Lennox Close",,50.946140171,-1.45037517,,,,,,
1980SN120019,,"Lordshill North, Fraser Close",,50.946457579,-1.449033383,,,,,,
1980SN120023,,"Forbes Close",,50.946963733,-1.447675108,,,,,,
1980SN120024,,"Sinclair Road",,50.946205131,-1.445093423,,,,,,
1980SN120025,,"Erskine Court",,50.945275511,-1.446271687,,,,,,
1980SN120026,,"Menzies Close",,50.944402121,-1.449840532,,,,,,
1980SNA40503,,"Lordshill Community Centre",,50.943249057,-1.45132019,,,,,,
1980SNA09242,,"Lordswood, Gannet Close",,50.94456663,-1.439049256,,,,,,
1980SNA09241,,"Sandpiper Road",,50.947753536,-1.434199512,,,,,,
1980SNA09240,,"Lordswood, Balmoral Close",,50.94596071,-1.431659076,,,,,,
1980SNA09239,,"Dunvegan Drive",,50.94618458,-1.425948331,,,,,,
1980SNA09236,,"Dunkirk Road",,50.941097487,-1.426480633,,,,,,
1980SNA90988,,"Dale Valley Close",,50.931789986,-1.430049971,,,,,,
1980SNA90929,,"Hollybrook Avenue",,50.934019207,-1.428061883,,,,,,
1980SNA90928,,"Dale Valley Road Flats",,50.93543316,-1.426664124,,,,,,
1980SNA90927,,"Dunkirk Road",,50.937067058,-1.424281584,,,,,,
1980SN120095,,"Rockleigh Road",,50.934982491,-1.419169906,,,,,,
1980SN120920,,"Richard Taunton College, Bellemoor Road",,50.927359428,-1.417870386,,,,,,
1980SN120240,,"Pentire Avenue",,50.927853034,-1.421293384,,,,,,
1980SN120235,,"Colebrook Avenue",,50.927574777,-1.425039003,,,,,,
1980SN120237,,"Pirrie Close",,50.926029591,-1.423521385,,,,,,
1980SN120239,,"Twyford Avenue",,50.924403996,-1.425761004,,,,,,
1980SN120384,,"Bridlington Avenue",,50.923390111,-1.424393412,,,,,,
1980SN120387,,"St John's Church",,50.920595165,-1.421098846,,,,,,
1980SN120390,,"Atherley Bowling Club",,50.918989304,-1.416438356,,,,,,
1980SNA90772,,"Bedford Place, Henstead Road",,50.91178813,-1.406087976,,,,,,
1980SNA90931,,"Chadwick Lodge",,50.912142163,-1.40851579,,,,,,
1980SN120514,,"Park View Apartments",,50.910385147,-1.409604814,,,,,,
1980SN120512,,"Handel Terrace",,50.91091479,-1.411205395,,,,,,
1980SN120508,,"Wilton Avenue",,50.913425966,-1.411657357,,,,,,
1980SN120510,,"St Anne's School",,50.914595262,-1.406379435,,,,,,
1980SN120397,,"St Anne's Gate",,50.916562353,-1.407705836,,,,,,
1980SN120396,,"Westrow Road",,50.915771489,-1.411357517,,,,,,
1980SN120504,,"Silverdale Road",,50.915056947,-1.414111945,,,,,,
1980SNA90919,,"Atherley Road",,50.914757606,-1.418994833,,,,,,
1980SNA09224,,"Napier House",,50.91369445,-1.424029328,,,,,,
1980SNA09225,,"Pitt Road",,50.913873497,-1.426058961,,,,,,
1980SNA09226,,"Benoire Court",,50.913363745,-1.431785728,,,,,,
1980SNA90921,,"Foundry Lane, Wolseley Road",,50.915362304,-1.432245054,,,,,,
1980SN120P09,,"York Road",,50.916028882,-1.432478776,,,,,,
1980SNA09228,,"Heysham Road",,50.918389806,-1.433488568,,,,,,
1980SNA09229,,"English Road",,50.918287003,-1.434542535,,,,,,
1980SNA09230,,"Latham Court",,50.918112457,-1.437503633,,,,,,
1980SN120364,,"Lansdowne Road",,50.918426867,-1.439306543,,,,,,
1980SN120358,,"Regents Park, Claremont Crescent",,50.916414651,-1.441620996,,,,,,
1980SN120326,,"South Mill Road",,50.916306291,-1.447198621,,,,,,
1980SN120352,,"Stanton Road",,50.917261255,-1.447571404,,,,,,
1980SN120354,,"King George's Avenue",,50.919673757,-1.446205575,,,,,,
1980SN120928,,"King George Avenue / Oakley Road",,50.921439092,-1.444904208,,,,,,
1980SNA40406,,"Millbrook Tesco",,50.923370724,-1.446432029,,,,,,
1980SN120329,,"King George's Avenue",,50.919896869,-1.445847267,,,,,,
1980SN120330,,"Stanton Road",,50.917332383,-1.447399855,,,,,,
1980SN120357,,"Regents Park, Claremont Crescent",,50.916692585,-1.441446966,,,,,,
1980SNA09231,,"Latham Court",,50.918258108,-1.437871752,,,,,,
1980SN120P10,,"Imperial Avenue",,50.918280351,-1.435026297,,,,,,
1980SNA09233,,"Heysham Road",,50.918407169,-1.433360323,,,,,,
1980SNA09234,,"Salcombe Road",,50.916740142,-1.43265506,,,,,,
1980SNA09235,,"Foundry Lane, Wolseley Road",,50.915275182,-1.432026195,,,,,,
1980SN120P08,,"Benoire Court",,50.913489998,-1.431729996,,,,,,
1980SN120P07,,"Pitt Road",,50.914009976,-1.426016885,,,,,,
1980SN120P06,,"Napier House",,50.914052793,-1.423754639,,,,,,
1980SNA90920,,"Atherley Road",,50.914871315,-1.418353297,,,,,,
1980SNA90918,,"Silverdale Road",,50.91508542,-1.414410312,,,,,,
1980SN120395,,"Westrow Road",,50.915888312,-1.411341819,,,,,,
1980SN120402,,"St Anne's Gate",,50.916276889,-1.406386501,,,,,,
1980SN120891,,"St Anne's School",,50.914504331,-1.406181444,,,,,,
1980SN120509,,"Wilton Avenue",,50.913452368,-1.411543228,,,,,,
1980SN120511,,"Handel Terrace",,50.911274681,-1.411243528,,,,,,
1980SN120513,,"Park View Apartments",,50.910473053,-1.409205443,,,,,,
1980SNA90930,,"Chadwick Lodge",,50.91217813,-1.408515334,,,,,,
1980SNA90870,,"Bedford Place, Henstead Road",,50.912213568,-1.406637304,,,,,,
1900HA030210,,"Eastleigh Bus Station [C]",,50.969960556,-1.352011392,,,,,,
1900HA030215,,"Sopwith Road",,50.970036624,-1.36092569,,,,,,
1900HA030217,,"Bill Luffman Way",,50.971078914,-1.365725221,,,,,,
1900HA030136,,"Hampshire Fire and Rescue HQ",,50.972163203,-1.370011672,,,,,,
1900HA030114,,"Ford Avenue",,50.973441362,-1.380334669,,,,,,
1900HA030117,,"Velmore, Falkland Court",,50.972475577,-1.383053593,,,,,,
1900HA030557,,"Somerset Crescent",,50.970425996,-1.382927492,,,,,,
1900HA030558,,"Wiltshire Road",,50.971442887,-1.37906279,,,,,,
1900HA030560,,"Velmore, Kent Road",,50.972572495,-1.381195794,,,,,,
1900HA030113,,"Ford Avenue",,50.973544422,-1.381116654,,,,,,
1900HA030115,,"Belmont Road",,50.973475353,-1.378269008,,,,,,
1900HA030135,,"Hampshire Fire and Rescue HQ",,50.972828954,-1.371740269,,,,,,
1900HA030216,,"Bill Luffman Way",,50.971013343,-1.365241884,,,,,,
1900HA030214,,"Sopwith Road",,50.970024204,-1.360299222,,,,,,
1900HA030213,,"Archers Road",,50.970525438,-1.354965858,,,,,,
1900HA030199,,"York Road",,50.958482654,-1.356243123,,,,,,
1900HAA09426,,"Lakeside Country Park",,50.955126794,-1.359208101,,,,,,
1900HA030201,,"Airport Parkway Station",,50.95092998,-1.362981368,,,,,,
1980SN120999,,"Mount Park",,50.944839333,-1.369099823,,,,,,
1980SN120164,,"Walnut Avenue",,50.942920212,-1.371744749,,,,,,
1980SN120040,,"Monks Way",,50.941129009,-1.371427288,,,,,,
1980SN120165,,"Mansbridge, Octavia Road",,50.940694506,-1.369227058,,,,,,
1980SN120795,,"Itchenside Close",,50.938904558,-1.36582129,,,,,,
1980HA120794,,"The White Swan",,50.937811555,-1.359972595,,,,,,
1900HA030391,,"Romill Close",,50.934878902,-1.351616519,,,,,,
1900HA030302,,"St Catherines View",,50.911505145,-1.311915063,,,,,,
1900HA030303,,"Greta Park",,50.912990839,-1.306160734,,,,,,
1900HA030400,,Bonhomie,,50.902389398,-1.309318922,,,,,,
1900HAA91974,,"Barnfield Way, Fosters Copse",,50.901247566,-1.306320996,,,,,,
1900HA030328,,Maypole,,50.91581359,-1.292519429,,,,,,
1900HA030329,,"Hobb Lane",,50.915057509,-1.296869523,,,,,,
1900HA030308,,"Hedge End, The Barleycorn",,50.913806825,-1.302748916,,,,,,
1900HA030304,,"Greta Park",,50.91321862,-1.305147412,,,,,,
1900HA030301,,"St Catherines View",,50.911547087,-1.311402383,,,,,,
1900HA120796,,"Romill Close",,50.935098966,-1.35238194,,,,,,
1980SN120797,,"The White Swan",,50.937478977,-1.361642283,,,,,,
1980SNA90808,,"Itchenside Close",,50.938716735,-1.366008863,,,,,,
1980SN120793,,"Mansbridge, Octavia Road",,50.940696503,-1.369597084,,,,,,
1980SN120791,,"Monks Way",,50.941075977,-1.371598798,,,,,,
1980HAA13386,,"Walnut Avenue",,50.943287191,-1.371426665,,,,,,
1980SN120998,,"Mount Park",,50.945323659,-1.368865523,,,,,,
1900HAA09425,,"Lakeside Country Park",,50.954976432,-1.359665758,,,,,,
1900HA030198,,"York Road",,50.959270788,-1.355662697,,,,,,
1900HA100216,,"Romsey Bus Station [D]",,50.987964239,-1.498493097,,,,,,
1900HA100224,,"Jacobs Close",,50.988078367,-1.485441402,,,,,,
1900HA100223,,"Petty Close",,50.987221564,-1.484866744,,,,,,
1900HA100225,,"Tadburn Road, David Court",,50.986124612,-1.482855855,,,,,,
1900HA100226,,"Grays Close",,50.987660082,-1.482354401,,,,,,
1900HAA91418,,"The Vikings",,50.988175672,-1.474968584,,,,,,
1900HAA91417,,"Saxon Way",,50.989518467,-1.475623083,,,,,,
1900HA100235,,"Avon Crescent",,50.990656213,-1.474669899,,,,,,
1900HAA91415,,"Anton Close",,50.991000356,-1.473212707,,,,,,
1900HAA91414,,"Meon Road",,50.991029314,-1.471659331,,,,,,
1900HAA91412,,"Kennett Road",,50.992030342,-1.470308616,,,,,,
1900HAA91410,,"Seward Rise",,50.992901261,-1.470013733,,,,,,
1900HAA91408,,"Hestia Close",,50.995156721,-1.46767965,,,,,,
1900HAA91406,,"St Swithuns Close",,50.996654009,-1.466707787,,,,,,
1900HA100045,,"Campion Drive",,50.997881822,-1.471738307,,,,,,
1900HAA91424,,"Cedar Lawn",,50.998715568,-1.473168145,,,,,,
1900HAA91423,,"School Road",,51.000594353,-1.47303287,,,,,,
1900HAA40510,,"Woodley Close",,51.004270221,-1.472592185,,,,,,
1900HAA91586,,"Woodley Cemetery",,51.006696926,-1.472322381,,,,,,
1900HA100062,,"Abbotswood Crossroads",,51.009914976,-1.472057822,,,,,,
1900HA100064,,"Dog and Crook",,51.016170345,-1.469349497,,,,,,
1900HA100066,,"Wheatsheaf Inn",,51.021002658,-1.46615775,,,,,,
1900HAA19819,,"Braishfield War Memorial",,51.025115363,-1.466866242,,,,,,
1900HAA40512,,"Braishfield War Memorial",,51.025069689,-1.466709921,,,,,,
1900HA100067,,"Wheatsheaf Inn",,51.021604263,-1.465965496,,,,,,
1900HA100065,,"Dog and Crook",,51.016152038,-1.469278426,,,,,,
1900HA100063,,"Abbotswood Crossroads",,51.009850681,-1.471759219,,,,,,
1900HAA91600,,"Woodley Cemetery",,51.007154738,-1.472146152,,,,,,
1900HA100061,,"Woodley Close",,51.004206892,-1.47250739,,,,,,
1900HA100060,,"Ganger Farm",,51.002723751,-1.472638214,,,,,,
1900HA100059,,"School Road",,51.000494671,-1.472862986,,,,,,
1900HA100058,,"Cedar Lawn",,50.998292694,-1.47311593,,,,,,
1900HA100044,,"Campion Drive",,50.998104879,-1.471351017,,,,,,
1900HAA91407,,"St Swithuns Close",,50.996617522,-1.466594206,,,,,,
1900HAA91409,,"Hestia Close",,50.995182983,-1.467522606,,,,,,
1900HAA91411,,"Seward Rise",,50.992909671,-1.469885399,,,,,,
1900HAA91413,,"Kennett Road",,50.992056672,-1.470165832,,,,,,
1900HA100233,,"Meon Road",,50.991036373,-1.471231806,,,,,,
1900HA100234,,"Anton Close",,50.990963618,-1.473042145,,,,,,
1900HAA91416,,"Avon Crescent",,50.990575094,-1.474628071,,,,,,
1900HA100236,,"Saxon Way, Senlac Road",,50.98959021,-1.475579532,,,,,,
1900HA100237,,"The Vikings",,50.988346453,-1.474952411,,,,,,
1980SN00002,,"Brownhill Way, Guernsey Close",,50.937906141,-1.458726706,,,,,,
1900HAA92328,,"Franconia Drive",,50.935950019,-1.477010024,,,,,,
1900HAA92329,,"Mauretaina Road",,50.938599973,-1.480229932,,,,,,
1900HAA92330,,"Nursling, Tesco Distribution Centre",,50.941119963,-1.480160006,,,,,,
1900HAA92331,,"Canberra Road",,50.94076997,-1.47567005,,,,,,
1900HAA92332,,"DX Logistics Depot",,50.937810032,-1.475189977,,,,,,
1980SN00001,,"Brownhill Way, Guernsey Close",,50.93795003,-1.459000019,,,,,,
1980SN120643,,"Kingsland Market",,50.905568547,-1.397932498,,,,,,
1980SN120954,,"Holy Family School",,50.932070006,-1.466535605,,,,,,
1980HAA13387,,"St Georges College, Leaside Way",,50.945376504,-1.382116881,,,,,,
1980SN120309,,"Bitterne Park Triangle",,50.924329218,-1.376106909,,,,,,
1980SN12426C,,"Bullar Road",,50.918364376,-1.373896257,,,,,,
1980SN120705,,"Butts Square",,50.902410764,-1.34103179,,,,,,
1980SN120706,,"Butts Road, Landseer Road",,50.900960418,-1.345375348,,,,,,
1980SN120696,,"Butts Road Tesco",,50.898775471,-1.348633921,,,,,,
1980SN120740,,"Butts Road Recreation Ground",,50.895275963,-1.353232789,,,,,,
1900HA030343,,"Bradbeers Retail Park",,50.926173666,-1.310688557,,,,,,
1900HAA09578,,"Dowd's Farm Park",,50.931196149,-1.308437167,,,,,,
1900HAA13694,,"Berrywood Business Village",,50.933272217,-1.308235623,,,,,,
1900HA030346,,"Peppercorn Way",,50.934189546,-1.303710837,,,,,,
1900HA030347,,"Marlborough Gardens",,50.933485637,-1.301785975,,,,,,
1900HA030350,,"Martley Gardens",,50.931931547,-1.297554413,,,,,,
1900HA030353,,"Maunsell Way, Shamblehurst Barn",,50.930385904,-1.294745974,,,,,,
1900HA030354,,"Elliot Rise",,50.92728294,-1.29614461,,,,,,
1900HA030359,,"Stirling Crescent",,50.925473388,-1.297295935,,,,,,
1900HA030360,,"Drummond Community Centre",,50.925859981,-1.300278061,,,,,,
1900HAA40521,,"Caravan Park",,50.924549438,-1.302175799,,,,,,
1900HA030364,,"Birchwood Gardens",,50.923204167,-1.302779244,,,,,,
1900HAA91562,,"Locke Road",,50.921966923,-1.300393343,,,,,,
1900HA030323,,"Botleigh Grange Hotel",,50.919736183,-1.297296963,,,,,,
1900HA030326,,Maypole,,50.91679308,-1.292405003,,,,,,
1900HA030325,,Maypole,,50.916840536,-1.292816825,,,,,,
1900HA030324,,"Botleigh Grange Hotel",,50.919846564,-1.297707869,,,,,,
1900HA030322,,"Locke Road",,50.921833411,-1.300622978,,,,,,
1900HA100006,,"Templars Way",,50.975799518,-1.404973084,,,,,,
1900HA100007,,"Pilgrims Close",,50.977357344,-1.405394748,,,,,,
1900HAA19702,,"Harvest Road",,50.983829925,-1.408560187,,,,,,
1900HAA09248,,"Bird Field",,50.986262316,-1.409441082,,,,,,
1900HAA19703,,"Catmint Close",,50.987119219,-1.406409854,,,,,,
1900HAA19704,,"Field View",,50.98535575,-1.404452079,,,,,,
1900HAA09251,,"Wood End Way",,50.984705641,-1.400414459,,,,,,
1900HAA19697,,"Knightwood Road",,50.98666219,-1.399676923,,,,,,
1900HA100018,,"Katrine Crescent",,50.990715913,-1.402830472,,,,,,
1900HA030039,,"Baddesley Bridge",,50.996711897,-1.39894882,,,,,,
1900HAA91848,,"Hursley Road",,50.999251644,-1.392745467,,,,,,
1900HA030041,,"Hiltingbury Court",,50.999384239,-1.390577623,,,,,,
1900HA030052,,"Pine Road",,50.997634561,-1.38103864,,,,,,
1900HA030077,,"Lakewood Road",,50.996352793,-1.375056508,,,,,,
1900HA030075,,"Kingsway Shops",,50.995794283,-1.369848633,,,,,,
1900HAA10124,,"Thornden School",,50.995333202,-1.362758614,,,,,,
1900HAA91115,,"West Ways Close",,50.946529876,-1.462626521,,,,,,
1900HA100805,,"Balmoral Way",,50.947848124,-1.463792829,,,,,,
1900HA100803,,"Upton Cresent",,50.951979802,-1.468642568,,,,,,
1900HA100241,,"Mountbatten School",,50.983660079,-1.468680072,,,,,,
1900HA100804,,"Nursling, Upton Crescent",,50.951807142,-1.468245923,,,,,,
1900HA100806,,"Nursling, Balmoral Way",,50.947721126,-1.463552296,,,,,,
1980SNA09343,,"Southampton, Westquay [BR]",,50.90355946,-1.405979306,,,,,,
1980SN120527,,"Civic Centre [AO]",,50.907030984,-1.406063148,,,,,,
1980SN120913,,"Solent University [ID]",,50.908024713,-1.401669878,,,,,,
1980SN120268,,"Highfield Crescent",,50.929586156,-1.390749827,,,,,,
1980SN120267,,"Upper Shaftesbury Avenue",,50.93107196,-1.391143091,,,,,,
1980SN120257,,"Jubilee Sports Hall",,50.93416535,-1.396339654,,,,,,
1980SN120900,,"Elmsleigh Gardens",,50.938706866,-1.399895853,,,,,,
1980SN120125,,"Hartley Grove",,50.940924482,-1.40096325,,,,,,
1980SNA90876,,"Cantell School",,50.941302142,-1.399207743,,,,,,
1980SN120136,,"Burgess Road Library",,50.938190454,-1.393925045,,,,,,
1980SN120134,,"Future Worlds",,50.937699289,-1.396322383,,,,,,
1980SN120256,,"Jubilee Sports Hall",,50.934137345,-1.396140785,,,,,,
1980SN120266,,"Upper Shaftesbury Avenue",,50.931199106,-1.39138334,,,,,,
1980SN120269,,"Highfield Crescent",,50.928723533,-1.390874924,,,,,,
1980SN120914,,"Solent University [IC]",,50.908554506,-1.401520859,,,,,,
1900HAA09339,,"Applemore College",,50.861022318,-1.430745215,,,,,,
1900HAA09340,,"Ordnance Way",,50.898389994,-1.446500603,,,,,,
1900HAA90810,,"Shorefield Road",,50.89735392,-1.449897133,,,,,,
1900HAA90813,,"Ferndale Road",,50.889511904,-1.447871102,,,,,,
1900HAA90812,,"Autumn Road",,50.889873051,-1.444383603,,,,,,
1900HAA90809,,"Drake Close",,50.893475249,-1.445478235,,,,,,
1900HAA90811,,"North Road",,50.89529864,-1.44693536,,,,,,
1980SNA90913,,"Swaythling McDonald's",,50.939146114,-1.380676563,,,,,,
1980SN120147,,"Aster Road",,50.938413954,-1.385069773,,,,,,
1980SN120145,,"Tulip Road",,50.938554413,-1.38784319,,,,,,
1980SN120140,,"Bealing Close",,50.938386321,-1.39181615,,,,,,
1980SN120128,,"Glen Eyre Road",,50.937618927,-1.399924082,,,,,,
1980SN120120,,"Boldrewood Campus",,50.936365095,-1.404437356,,,,,,
1980SN120114,,"Winchester Road, Great Oaks School",,50.940303479,-1.407916769,,,,,,
1980SN120113,,"Butterfield Road",,50.937495035,-1.412705843,,,,,,
1980SN120098,,"Hollybrook Roundabout",,50.93461786,-1.418178281,,,,,,
1980SN120097,,"Hollybrook Roundabout",,50.934806264,-1.418090545,,,,,,
1980SN120112,,"Butterfield Road",,50.938183328,-1.411885952,,,,,,
1980SN120111,,"Winchester Road, Great Oaks School",,50.940242411,-1.408287594,,,,,,
1980SNA90969,,"Westbrook Court",,50.949632817,-1.399926062,,,,,,
1980SNA90968,,Crematorium,,50.945387612,-1.3910843,,,,,,
1980SN120032,,"Ethelburt Avenue",,50.943602079,-1.384972896,,,,,,
1900HA040089,,"Warsash Road, The Farthings",,50.8492865,-1.256322889,,,,,,
1900HA040087,,"Oaklands Way",,50.850653152,-1.26053439,,,,,,
1900HA040085,,"Abshot Road",,50.851487352,-1.264470391,,,,,,
1900HA040082,,"Abshot Road, Clarendon Crescent",,50.853230852,-1.264300916,,,,,,
1900HA040081,,"Cambridge Green",,50.856382224,-1.260656932,,,,,,
1900HA040079,,"Hunts Pond Road, Abshot School",,50.859212164,-1.258807775,,,,,,
1900HA040078,,"Hunts Pond Road, Dimmicks Corner",,50.860917274,-1.259675892,,,,,,
1900HA040074,,"Hunts Pond Road, Lodge Road",,50.863849207,-1.261149889,,,,,,
1900HA040071,,"Hunts Pond Road, Admirals Road",,50.868420659,-1.263081381,,,,,,
1900HA040471,,"Hunts Pond Road Roundabout",,50.869758957,-1.264254033,,,,,,
1900HA040013,,"A27 Park Gate",,50.871903063,-1.269166033,,,,,,
1900HA040011,,"Bridge Road, Brook Lane",,50.87276896,-1.272463932,,,,,,
1900HA040009,,"Cold East Way",,50.874159352,-1.277700951,,,,,,
1900HA040007,,"The Bold Forester",,50.875549772,-1.282980918,,,,,,
1900HA040005,,"Sarisbury Green, One Stop",,50.87646046,-1.289263432,,,,,,
1900HA040003,,"Swanwick Shore Road",,50.880287893,-1.294635146,,,,,,
1900HA040001,,"The Navigator",,50.883691446,-1.299843499,,,,,,
1900HA030480,,"Bursledon Rail Station",,50.886032061,-1.303277177,,,,,,
1900HA030477,,"Bursledon, Dodwell Lane",,50.889763644,-1.309278109,,,,,,
1900HA040038,,"Warsash Gospel Hall",,50.853707834,-1.291995837,,,,,,
1900HA040040,,"Church Road",,50.853028042,-1.29557187,,,,,,
1900HA040048,,"Warsash Clock Tower",,50.853729935,-1.30013575,,,,,,
1900HAA91950,,"Medina Nurseries",,50.856508865,-1.298673452,,,,,,
1900HA040050,,"Brook Lane, Greenaway Lane",,50.858690382,-1.296566393,,,,,,
1900HA040052,,"Brook Lane, Barnes Lane",,50.861889102,-1.293150785,,,,,,
1900HA040054,,"Barnes Lane, Winnards Park",,50.865846826,-1.29034842,,,,,,
1900HA040055,,"Barnbrook Road",,50.867278246,-1.289133015,,,,,,
1900HA040057,,"Allotment Road",,50.872620281,-1.28773006,,,,,,
1900HA040060,,"Barnes Lane, Holly Hill Lane",,50.875425876,-1.287715737,,,,,,
1900HA030481,,"Redcroft Lane",,50.890455394,-1.31221091,,,,,,
1900HA030484,,"Lowford, One Stop",,50.889520061,-1.316788413,,,,,,
1900HA030486,,"Lowford, Jurd Way",,50.890594008,-1.322075859,,,,,,
1900HA030485,,"Lowford, Jurd Way",,50.890009872,-1.322141205,,,,,,
1900HA030483,,"Lowford, One Stop",,50.88965061,-1.316047206,,,,,,
1900HA030482,,"Redcroft Lane",,50.890394544,-1.312567244,,,,,,
1900HA030478,,"Bursledon, Dodwell Lane",,50.889879107,-1.309034707,,,,,,
1900HA030479,,"Bursledon Rail Station",,50.886430326,-1.303711944,,,,,,
1900HA040002,,"Swanwick Lane",,50.882318582,-1.297348002,,,,,,
1900HA040006,,"Sarisbury Green, One Stop",,50.876301195,-1.288214075,,,,,,
1900HA040059,,"Barnes Lane, Holly Hill Lane",,50.875182233,-1.28757732,,,,,,
1900HA040058,,"Allotment Road",,50.873929172,-1.287070554,,,,,,
1900HA040056,,"Barnbrook Road",,50.867321994,-1.288933403,,,,,,
1900HA040053,,"Barnes Lane, Winnards Park",,50.864763226,-1.291089561,,,,,,
1900HA040051,,"Brook Lane, Barnes Lane",,50.861754569,-1.293209653,,,,,,
1900HA040049,,"Brook Lane, Greenaway Lane",,50.858609285,-1.296539197,,,,,,
1900HAA91951,,"Medina Nurseries",,50.85633657,-1.298434513,,,,,,
1900HA040047,,"Warsash Clock Tower",,50.853347934,-1.299416946,,,,,,
1900HA040039,,"Dibles Road",,50.853072401,-1.295471759,,,,,,
1900HA040037,,"Warsash Gospel Hall",,50.853788846,-1.292008817,,,,,,
1990PH130008,,"North Harbour Tesco",,50.845828035,-1.095105109,,,,,,
1990PH130005,,Watersedge,,50.846688666,-1.102915069,,,,,,
1990PH130003,,Shorehaven,,50.847103868,-1.108986628,,,,,,
1990PH130002,,"Mother Kellys",,50.84719867,-1.114354127,,,,,,
1900HA040421,,"Portchester Precinct",,50.84663102,-1.123739731,,,,,,
1900HA040419,,"The Fairway",,50.846059253,-1.131463294,,,,,,
1900HA040417,,"Westlands Grove",,50.84670771,-1.135229612,,,,,,
1900HA040415,,"Portchester, The Seagull",,50.848286569,-1.140797128,,,,,,
1900HA040414,,"Beaulieu Avenue",,50.848888207,-1.144351534,,,,,,
1900HA040412,,"Condor Roundabout",,50.849921151,-1.150341488,,,,,,
1900HA040409,,"Birdwood Grove",,50.850518175,-1.153299592,,,,,,
1900HA040408,,"Downend Road",,50.851042099,-1.157352923,,,,,,
1900HA040406,,"Delme Arms",,50.85227017,-1.16557029,,,,,,
1900HAA91512,,"Bath Lane",,50.85223919,-1.172588605,,,,,,
1900HA040255,,"Lysses Court",,50.853812267,-1.173768331,,,,,,
1900HA040256,,"Wickham Road Roundabout",,50.856965371,-1.175843746,,,,,,
1900HA040273,,"Fareham Rail Station",,50.852519098,-1.190710605,,,,,,
1900HAA90892,,"Stephenson Road",,50.858700967,-1.240828667,,,,,,
1900HAA91110,,"Segensworth Road",,50.862117821,-1.239394932,,,,,,
1900HA040166,,"Gardenia Drive",,50.862622163,-1.240892894,,,,,,
1900HA040164,,"Segensworth Road, ONS",,50.863627507,-1.246162474,,,,,,
1900HA040162,,"Titchfield Park Road",,50.865256608,-1.249177129,,,,,,
1900HA040160,,"Segensworth Road, Witherbed Lane",,50.866457742,-1.251374643,,,,,,
1900HA040161,,"Segensworth Road, Witherbed Lane",,50.866602064,-1.251443384,,,,,,
1900HA040163,,"Titchfield Park Road",,50.865310101,-1.249105221,,,,,,
1900HA040165,,"Segensworth Road, ONS",,50.863624387,-1.245679405,,,,,,
1900HA040167,,"Gardenia Drive",,50.862648122,-1.240736173,,,,,,
1900HAA91111,,"Segensworth Road",,50.861883575,-1.239327698,,,,,,
1900HAA90893,,"Stephenson Road",,50.857123419,-1.241621474,,,,,,
1900HA040285,,"Catisfield, Ranvilles Lane",,50.850213666,-1.224672874,,,,,,
1900HA040280,,"The Avenue, Peak Lane",,50.851418603,-1.209907373,,,,,,
1900HAA91153,,"Fareham Rail Station",,50.852716518,-1.190650365,,,,,,
1900HA040272,,"Station Roundabout",,50.852778693,-1.18924288,,,,,,
1900HA040270,,"Trinity Street",,50.852607997,-1.184103232,,,,,,
1900HAA13454,,"Russell Place",,50.853413264,-1.183520933,,,,,,
1900HA040407,,"Delme Arms",,50.852242432,-1.164207008,,,,,,
1900HA040410,,"Down End Road",,50.850708026,-1.153438211,,,,,,
1900HA040411,,"The Thicket",,50.849978507,-1.149573359,,,,,,
1900HA040413,,"Beaulieu Avenue",,50.84925754,-1.145665854,,,,,,
1900HA040416,,"Portchester, The Seagull",,50.848335707,-1.140142803,,,,,,
1900HA040418,,"Westlands Grove",,50.846576145,-1.134465011,,,,,,
1900HA040420,,"The Fairway",,50.846169481,-1.130566384,,,,,,
1900HA040422,,"Portchester Precinct",,50.847228669,-1.121896156,,,,,,
1990PH130001,,"Mother Kellys",,50.84725725,-1.114963813,,,,,,
1990PH130004,,Shorehaven,,50.847205908,-1.108217641,,,,,,
1990PH130006,,Watersedge,,50.846953453,-1.103435557,,,,,,
1900HA040278,,"White Oaks",,50.85144905,-1.205119528,,,,,,
1900HA040276,,"Fareham College",,50.85211235,-1.199539531,,,,,,
1900HA040190,,"Gudge Heath Lane, Craigbank Court",,50.853048855,-1.194494502,,,,,,
1900HA040188,,"Blackbrook Road",,50.855404464,-1.198346639,,,,,,
1900HA040193,,"Oak Road",,50.857867316,-1.20080498,,,,,,
1900HA040194,,"Hammond Road",,50.859020252,-1.203712134,,,,,,
1900HA040199,,"Highlands Shops",,50.860170943,-1.208949643,,,,,,
1900HA040201,,"Hillson Drive",,50.858438235,-1.212033637,,,,,,
1900HAA13471,,"Greyfriars Road",,50.855992987,-1.21615227,,,,,,
1900HA040176,,"Catisfield Road",,50.854066449,-1.219864042,,,,,,
1900HA040175,,"Hampton Grove",,50.852440592,-1.22148223,,,,,,
1900HA040284,,"Catisfield, Ranvilles Lane",,50.850058941,-1.223041829,,,,,,
1900HAA13446,,"Hunts Pond Road Roundabout",,50.869939239,-1.264322252,,,,,,
1900HA040072,,"Hunts Pond Road, Admirals Road",,50.8675973,-1.262284353,,,,,,
1900HA040073,,"Hunts Pond Road, Lodge Road",,50.864630945,-1.261052279,,,,,,
1900HA040075,,"Dimmicks Corner, Hunts Pond Road",,50.86183686,-1.260044974,,,,,,
1900HAA91054,,"Hunts Pond Road, Abshot School",,50.859229606,-1.25872225,,,,,,
1900HA040174,,"Hampton Grove",,50.852012213,-1.221972359,,,,,,
1900HA040177,,"Catsfield Road",,50.854557475,-1.219330206,,,,,,
1900HA040178,,"Greyfriars Road",,50.856038613,-1.216250956,,,,,,
1900HA040200,,"Hillson Drive",,50.858191358,-1.212762393,,,,,,
1900HA040198,,"Highlands Shops",,50.860510312,-1.208602899,,,,,,
1900HA040195,,"Hammond Road",,50.85945099,-1.204898286,,,,,,
1900HA040192,,"Oak Road",,50.857366454,-1.199890048,,,,,,
1900HA040189,,"Blackbrook Road",,50.855284744,-1.197936691,,,,,,
1900HA040191,,"Gudge Heath Lane, Craigbank Court",,50.853030186,-1.19439538,,,,,,
1900HA040277,,"Fareham College",,50.852087155,-1.198488723,,,,,,
1900HA040279,,"White Oaks",,50.85137093,-1.205532821,,,,,,
1900HA040281,,"The Avenue, Peak Lane",,50.851200305,-1.209541713,,,,,,
1900HA110688,,"Corhampton Park, A32",,50.977159759,-1.131142931,,,,,,
1900HA110685,,"Sheep Pond Lane",,50.965790587,-1.133206258,,,,,,
1900HA110684,,"Droxford, Park Lane",,50.960976743,-1.137681469,,,,,,
1900HAA91664,,"Soberton Heath Post Box",,50.921294242,-1.148928771,,,,,,
1900HAA92001,,"Soberton, Chapel Duck Pond",,50.928590845,-1.138471339,,,,,,
1900HAA40446,,"Soberton, Bold Forester",,50.92517047,-1.142839531,,,,,,
1900HAA19687,,"Soberton Heath Post Box",,50.921176525,-1.148817102,,,,,,
1900HA110648,,"Bishop's Wood Road",,50.931826855,-1.180697725,,,,,,
1900HA110647,,"Gravel Hill Depot",,50.927455932,-1.184473996,,,,,,
1900HA110642,,"Solomons Lane",,50.925169201,-1.186676651,,,,,,
1900HA110641,,"Shirrell Heath Methodist Church",,50.923803802,-1.188180139,,,,,,
1900HA110553,,"Wintershill Farm",,50.959521956,-1.238931148,,,,,,
1900HA110551,,"Laurel Farm",,50.958387026,-1.242794022,,,,,,
1900HA110550,,"Durley, Robin Hood",,50.956557823,-1.250583303,,,,,,
1900HA110547,,"Old Durley Chapel",,50.953074956,-1.257188164,,,,,,
1900HA110545,,"Middle Farm Cottage",,50.949707889,-1.260829193,,,,,,
1900HA110544,,"Durley Village Hall",,50.947165175,-1.268314332,,,,,,
1900HA110542,,"Durley Primary School",,50.947868547,-1.274395898,,,,,,
1900HA110539,,"Church Lane",,50.946128426,-1.280928156,,,,,,
1900HA110537,,"Snakemoor Farm",,50.944184997,-1.286623229,,,,,,
1900HA030284,,"Witt Road",,50.968474582,-1.29866982,,,,,,
1900HA030278,,"Fox and Hounds",,50.976124863,-1.302799248,,,,,,
1900HA030280,,"Hill Close",,50.977817919,-1.303215473,,,,,,
1900HA030281,,"Hillview Manor Park",,50.981273661,-1.305172348,,,,,,
1900HA110530,,"Fishers Pond",,50.98627807,-1.305952475,,,,,,
1900HA110528,,"Woodside Centre",,50.991160759,-1.308957309,,,,,,
1900HA110520,,"Colden Common, St Vigor Way",,50.991834127,-1.311825506,,,,,,
1900HA110517,,"Brickmakers Road",,50.991168444,-1.31791936,,,,,,
1900HA110445,,"Bishopstoke Lane",,50.992354863,-1.325567741,,,,,,
1900HA110443,,"The Brambridge Arms",,50.993366803,-1.32796115,,,,,,
1900HA110441,,"Green Pastures",,50.993598218,-1.33067937,,,,,,
1900HA110440,,"Wardle Road",,50.991663235,-1.333542626,,,,,,
1900HA110438,,"Highbridge Farm",,50.988166702,-1.340146456,,,,,,
1900HA030171,,"Allbrook Hill, Osborne Mews",,50.987733242,-1.346221909,,,,,,
1900HA030172,,"Allbrook Hill, Osborne Mews",,50.987796104,-1.346206779,,,,,,
1900HA110437,,"Highbridge Farm",,50.988222502,-1.340473355,,,,,,
1900HA110439,,"Wardle Road",,50.991450035,-1.334001625,,,,,,
1900HA110442,,"Green Pastures",,50.993883828,-1.330304786,,,,,,
1900HA110444,,"The Brambridge Arms",,50.993465711,-1.327959722,,,,,,
1900HA110446,,"Bishopstoke Lane",,50.992358259,-1.324598784,,,,,,
1900HA110518,,"Brickmakers Road",,50.991231801,-1.317989673,,,,,,
1900HA110519,,"Colden Common, St Vigor Way",,50.991995724,-1.311780371,,,,,,
1900HA110529,,"Woodside Centre",,50.990582263,-1.308452964,,,,,,
1900HA110531,,"Fishers Pond",,50.985907722,-1.305673062,,,,,,
1900HA030282,,"Hillview Manor Park",,50.981291136,-1.305086616,,,,,,
1900HA030279,,"Hill Close",,50.977889597,-1.303171668,,,,,,
1900HA030277,,"Fox and Hounds",,50.97607931,-1.302700224,,,,,,
1900HA110538,,"Snakemoor Farm",,50.944283557,-1.286564786,,,,,,
1900HA110540,,"Church Lane",,50.946209613,-1.280969608,,,,,,
1900HA110541,,"Durley Primary School",,50.947995401,-1.27455051,,,,,,
1900HA110543,,"Durley Village Hall",,50.947245654,-1.268241894,,,,,,
1900HA110546,,"Middle Farm Cottage",,50.94988727,-1.26075517,,,,,,
1900HA110548,,"Old Durley Chapel",,50.953484493,-1.256540982,,,,,,
1900HA110549,,"Durley, Robin Hood",,50.95661232,-1.250667853,,,,,,
1900HA110552,,"Laurel Farm",,50.958458959,-1.242792853,,,,,,
1900HA110554,,"Wintershill Farm",,50.959575812,-1.23891603,,,,,,
1900HAA92168,,"Knowle Village Roundabout",,50.882079967,-1.197990041,,,,,,
1900HA040268,,"Forest Lane",,50.882103969,-1.181555594,,,,,,
1900HA110781,,"Greenlees Close",,50.887439535,-1.18069443,,,,,,
1900HA110780,,"Shell Garage",,50.89617245,-1.184707521,,,,,,
1900HAA13484,,"Wickham Bridge",,50.897330129,-1.186948245,,,,,,
1900HA110778,,"Wickham Square",,50.899533449,-1.188260822,,,,,,
1900HA110592,,"Park Place",,50.903094664,-1.193475076,,,,,,
1900HA110590,,"Redhill Crossroads",,50.905978322,-1.194349717,,,,,,
1900HA110593,,"Ashley Manor",,50.911883193,-1.200421082,,,,,,
1900HA110596,,"Shedfield, Church Road",,50.916855586,-1.200350125,,,,,,
1900HA110597,,"Sandy Hill",,50.920282317,-1.200433676,,,,,,
1900HA110599,,"The Black Dog",,50.926240906,-1.201242191,,,,,,
1900HA110601,,"Waltham Chase Village Hall",,50.93186116,-1.201231339,,,,,,
1900HA110671,,"Waltham Chase, Forest Gardens",,50.935290471,-1.199066384,,,,,,
1900HA110669,,"Forest Road",,50.935410054,-1.194225687,,,,,,
1900HA110668,,"Brickyard Road",,50.936379707,-1.192700385,,,,,,
1900HAA09346,,"Swanmore School Grounds",,50.939762518,-1.187745797,,,,,,
1900HA110666,,"Swanmore Technology College",,50.940053394,-1.186901,,,,,,
1900HA110664,,"Swanmore Recreation Ground",,50.941894175,-1.183936844,,,,,,
1900HA110658,,"Swanmore, St Barnabas Church",,50.944563386,-1.181142944,,,,,,
1900HA110659,,"Hampton Hill",,50.946689281,-1.184237253,,,,,,
1900HA110662,,"Moorlands Road",,50.949224162,-1.187965312,,,,,,
1900HA110627,,"Paradise Lane",,50.951831054,-1.191720999,,,,,,
1900HA110625,,"Rareridge Lane",,50.953909014,-1.197038061,,,,,,
1900HA110622,,"Gunners Park",,50.953509811,-1.201771566,,,,,,
1900HA110849,,"Cricklemede, Hoe Road",,50.95316579,-1.20406957,,,,,,
1900HA110847,,"Godfrey Pink Way",,50.951693536,-1.207084326,,,,,,
1900HA110611,,"Bishops Waltham, Square",,50.953472283,-1.21347487,,,,,,
1900HA110515,,"Priory Court",,50.955256477,-1.220734287,,,,,,
1900HA110513,,"The Avenue",,50.956092805,-1.223439687,,,,,,
1900HA110511,,"Churchill Avenue",,50.9582182,-1.227988989,,,,,,
1900HA110509,,"Bishops Waltham, Ashton Lane",,50.960481282,-1.232992083,,,,,,
1900HA110507,,Meadowview,,50.96496821,-1.239824772,,,,,,
1900HA110505,,"Wold Cottages",,50.969903894,-1.250781639,,,,,,
1900HA110503,,"Upham, Alma Inn",,50.972543105,-1.25569562,,,,,,
1900HA110504,,"Upham, Alma Inn",,50.972196526,-1.254932062,,,,,,
1900HA110506,,"Wold Cottages",,50.96961931,-1.249874745,,,,,,
1900HA110508,,Meadowview,,50.964985267,-1.239682091,,,,,,
1900HA110510,,"Bishops Waltham, Ashton Lane",,50.960515566,-1.232735218,,,,,,
1900HA110512,,"Churchill Avenue",,50.957679418,-1.226744962,,,,,,
1900HA110514,,"Claylands Road",,50.955760305,-1.222121139,,,,,,
1900HA110516,,"Pondside Lane",,50.954841596,-1.219203603,,,,,,
1900HA110848,,"Godfrey Pink Way",,50.951765468,-1.207083102,,,,,,
1900HA110850,,"Cricklemede, Hoe Road",,50.953202628,-1.204197072,,,,,,
1900HA110623,,"Gunners Park",,50.953727395,-1.20071431,,,,,,
1900HA110624,,"Rareridge Lane",,50.95398075,-1.197008351,,,,,,
1900HA110626,,"Paradise Lane",,50.952409163,-1.19209536,,,,,,
1900HA110660,,"Hampton Hill",,50.947178295,-1.184726918,,,,,,
1900HA110656,,"Swanmore, St Barnabas Church",,50.943777342,-1.180615861,,,,,,
1900HA110663,,"Swanmore Recreation Ground",,50.942382138,-1.182988897,,,,,,
1900HA110665,,"Swanmore Technology College",,50.940087378,-1.186615752,,,,,,
1900HA110667,,"Brickyard Road",,50.93633416,-1.192615783,,,,,,
1900HA110670,,"Waltham Grange",,50.934833866,-1.19674032,,,,,,
1900HA110672,,"Waltham Chase, Forest Gardens",,50.935218637,-1.199081849,,,,,,
1900HA110603,,"Curdridge Lane",,50.934943481,-1.200922394,,,,,,
1900HA110602,,"Waltham Chase Village Hall",,50.931158269,-1.201015695,,,,,,
1900HA110600,,"The Black Dog",,50.927192932,-1.201069375,,,,,,
1900HA110598,,"Sandy Hill",,50.921843717,-1.199951653,,,,,,
1900HA110595,,"Shedfield, Church Road",,50.916044989,-1.200164858,,,,,,
1900HA110594,,"Ashley Manor",,50.912206108,-1.200301757,,,,,,
1900HA110589,,"Redhill Crossroads",,50.905752259,-1.194168728,,,,,,
1900HA110591,,"Park Place",,50.902939255,-1.193108004,,,,,,
1900HAA13485,,"Wickham Bridge",,50.897292579,-1.186721384,,,,,,
1900HA110779,,"Shell Garage",,50.89625248,-1.18457815,,,,,,
1900HA110782,,"Greenlees Close",,50.887393281,-1.180510424,,,,,,
1900HA040269,,"Forest Lane",,50.882381908,-1.181437005,,,,,,
1900HA110584,,"Curbridge, Bluebell Way",,50.898141897,-1.258930014,,,,,,
1900HA040135,,"Burridge Village Hall",,50.894407321,-1.262785246,,,,,,
1900HA040133,,"Burridge, Burridge Road",,50.890712171,-1.264336409,,,,,,
1900HA040131,,"Caigers Green",,50.888071524,-1.266268826,,,,,,
1900HA040128,,"Old Nurseries",,50.885172844,-1.268645758,,,,,,
1900HA040127,,"Swanwick, Elm Tree Inn",,50.882980196,-1.270329046,,,,,,
1900HA040136,,"Yew Tree Drive, Surgery",,50.882590231,-1.265501981,,,,,,
1900HA040137,,"Lipizzaner Fields",,50.883238302,-1.264169767,,,,,,
1900HAA13459,,"Sweethills, Andalusian Gardens",,50.885186269,-1.263627318,,,,,,
1900HAA13460,,"Sweethills, Timor Close",,50.886518407,-1.260976298,,,,,,
1900HAA13461,,"Sweethills, Buchan Avenue",,50.884786855,-1.258771798,,,,,,
1900HA040140,,"Hispano Avenue",,50.881990447,-1.258816152,,,,,,
1900HAA09447,,"Yew Tree Drive, Gull Coppice",,50.881284266,-1.256652493,,,,,,
1900HA040142,,"Rookery Avenue",,50.879596047,-1.254206064,,,,,,
1900HA040145,,"Whiteley, Solent Hotel",,50.879218063,-1.249947853,,,,,,
1900HAA91433,,"Whiteley Tesco",,50.887085623,-1.245613467,,,,,,
1900HAA92124,,"Bluebell Way",,50.888810024,-1.254940025,,,,,,
1900HAA92122,,"Bluebell Way, Hope Church",,50.893149989,-1.256459995,,,,,,
1900HAA92120,,"Brunel Way",,50.896699981,-1.256870025,,,,,,
1900HA110583,,"Curbridge, Bluebell Way",,50.898517497,-1.257680941,,,,,,
1900HAA92165,,"Whiteley Way, Skipper Road",,50.905420733,-1.24612993,,,,,,
1900HA110578,,"Fairthorne Manor",,50.911068683,-1.254002089,,,,,,
1900HA110574,,"King's Corner",,50.913964678,-1.262561764,,,,,,
1900HA110575,,"Botley, King's Corner",,50.913729279,-1.260886974,,,,,,
1900HA110577,,"Fairthorne Manor",,50.91112227,-1.253944337,,,,,,
1900HAA92166,,"Whiteley Way, Skipper Road",,50.905310017,-1.245960057,,,,,,
1900HA040016,,"Locks Road Top",,50.871206698,-1.268537393,,,,,,
1900HA040017,,"Locks Road, Headland Drive",,50.868263733,-1.269592401,,,,,,
1900HA040020,,"Home Rule Road",,50.865156332,-1.270237754,,,,,,
1900HAA13470,,"Richards Close",,50.863701361,-1.270530439,,,,,,
1900HA040024,,"Locks Road, Church Road",,50.86258763,-1.270746738,,,,,,
1900HA040025,,"Locks Road, Heath Road",,50.860925847,-1.271042614,,,,,,
1900HA040027,,"James Grieve Avenue",,50.858958876,-1.27142847,,,,,,
1900HAA91298,,"Lawn Drive",,50.857862594,-1.271559207,,,,,,
1900HA040030,,"Locks Heath Junior School",,50.855132506,-1.273590675,,,,,,
1900HA040032,,"Fleet End Corner",,50.855057925,-1.277512905,,,,,,
1900HA040033,,"Horseshoe Lodge",,50.854973701,-1.282813325,,,,,,
1900HA040035,,"Warsash, Saxon Close",,50.854996098,-1.287941621,,,,,,
1900HA040036,,"Warsash, Saxon Close",,50.854874284,-1.288611191,,,,,,
1900HA040034,,"Horseshoe Lodge",,50.855028437,-1.282940347,,,,,,
1900HA040031,,"Fleet End Corner",,50.855099542,-1.276972404,,,,,,
1900HA040029,,"Locks Heath Junior School",,50.85530907,-1.273062279,,,,,,
1900HA040028,,"Lawn Drive",,50.857953663,-1.271742489,,,,,,
1900HA040026,,"Locks Road, Heath Road",,50.860297934,-1.271293943,,,,,,
1900HA040021,,"Locks Road, Church Road",,50.864034409,-1.270582081,,,,,,
1900HA040019,,"Home Rule Road",,50.865713996,-1.270257471,,,,,,
1900HA040018,,"Locks Road, Headland Drive",,50.867447265,-1.269889367,,,,,,
1900HA040015,,"Locks Road Top",,50.871494699,-1.268575522,,,,,,
1900HA040295,,"Stubbington Green",,50.825187661,-1.213998872,,,,,,
1900HA040294,,"Crofton Club",,50.827883022,-1.216310588,,,,,,
1900HA040292,,"Stubbington, Anker Lane",,50.831445717,-1.219232878,,,,,,
1900HAA10027,,"Titchfield Bowling Green",,50.846375844,-1.23178174,,,,,,
1900HA040103,,"Titchfield, Coach Hill",,50.84708172,-1.237949058,,,,,,
1900HA040094,,"St Margarets Lane",,50.847983954,-1.242550877,,,,,,
1900HA040092,,"West Hill Park School",,50.848307881,-1.246750239,,,,,,
1900HA040091,,"Warsash Road",,50.848253146,-1.24942161,,,,,,
1900HA040008,,"The Bold Forester",,50.875638817,-1.282837422,,,,,,
1900HA040010,,"Cold East Way",,50.874092717,-1.277105052,,,,,,
1900HA040012,,"Bridge Road, Brook Lane",,50.872783489,-1.271909431,,,,,,
1900HA040014,,"A27 Park Gate",,50.871587105,-1.267536614,,,,,,
1900HA040080,,"Abshot Road, Hunts Pond Road",,50.857372291,-1.259376815,,,,,,
1900HAA13449,,"Cambridge Green",,50.855711892,-1.261306842,,,,,,
1900HA040083,,"Clarendon Crescent",,50.852979173,-1.264319081,,,,,,
1900HA040084,,"Abshot Road",,50.851604871,-1.264567984,,,,,,
1900HA040086,,"Oaklands Way",,50.850771304,-1.2607314,,,,,,
1900HA040088,,"Warsash Road, The Farthings",,50.849358253,-1.256293338,,,,,,
1900HA040090,,"Warsash Road",,50.84829249,-1.249946554,,,,,,
1900HA040093,,"West Hill Park School",,50.848357797,-1.246124426,,,,,,
1900HA040095,,"St Margarets Lane",,50.847997881,-1.241925646,,,,,,
1900HA040102,,"Titchfield, Coach Hill",,50.847201022,-1.23831643,,,,,,
1900HAA10026,,"Titchfield Bowling Green",,50.846510999,-1.231822133,,,,,,
1900HA040293,,"Stubbington, Anker Lane",,50.831210415,-1.219009609,,,,,,
1900HAA09360,,"Balmoral Way",,50.949079364,-1.463636318,,,,,,
1900HAA10105,,"Hurricane Drive",,50.950638861,-1.460557681,,,,,,
1900HAA09361,,"Horns Drove",,50.95207805,-1.454832297,,,,,,
1900HAA91114,,"Nutshalling Avenue",,50.946494047,-1.460705272,,,,,,
1980SN120093,,"Dunkirk Road",,50.937770598,-1.424714089,,,,,,
1900HAA09362,,"Horns Drove",,50.951892141,-1.455460863,,,,,,
1900HAA10104,,"Hurricane Drive",,50.950644302,-1.459788885,,,,,,
1900HAA09363,,"Balmoral Way",,50.949007102,-1.463565972,,,,,,
1900HA080047,,"Michigan Way",,50.924470655,-1.518098643,,,,,,
1900HA080050,,"Shepherds Hey Road",,50.926793544,-1.52097727,,,,,,
1900HA080052,,"Calmore, The Drove",,50.929028122,-1.519872914,,,,,,
1900HA080053,,"Loperwood Crossroads",,50.931612615,-1.518579854,,,,,,
1900HAA19729,,"Buckland Gardens",,50.933017107,-1.514637774,,,,,,
1900HAA91980,,"Buckland Gardens",,50.932935706,-1.514524778,,,,,,
1900HA080054,,"Loperwood Crossroads",,50.931612263,-1.518494478,,,,,,
1900HA080051,,"Calmore, The Drove",,50.928982928,-1.519816463,,,,,,
1900HA080049,,"Shepherds Hey Road",,50.927197544,-1.520816608,,,,,,
1900HA080048,,"Michigan Way",,50.924016001,-1.51687976,,,,,,
1900HA080046,,"Calmore Service Station",,50.922890549,-1.514373177,,,,,,
1900HA080109,,"Calmore Corner",,50.917374819,-1.504998967,,,,,,
1900HA080107,,"Graddidge Way",,50.91658724,-1.510156908,,,,,,
1900HAA91769,,"Hazel Farm Road",,50.916139828,-1.512835949,,,,,,
1900HA080105,,"Crabbs Way",,50.915448995,-1.517551644,,,,,,
1900HA080103,,"West Totton, Goodies",,50.914952419,-1.521440168,,,,,,
1900HA080005,,"Ower, Shelley Lodge",,50.955976804,-1.544197651,,,,,,
1900HA080003,,"Salisbury Lodge",,50.961065256,-1.560309098,,,,,,
1900HA080002,,"East Wellow, Whinwhistle Corner",,50.962540396,-1.565222012,,,,,,
1900HA100141,,"Wellow, Carlo's Tearoom",,50.972825965,-1.559970245,,,,,,
1900HA100143,,"West Wellow War Memorial",,50.975309868,-1.577579983,,,,,,
1900HA100144,,"Wheatears Drive",,50.972855424,-1.582715307,,,,,,
1900HA100146,,"West Wellow, Lower Common Road",,50.969986941,-1.585261767,,,,,,
1900HA100154,,"Slab Lane",,50.970055274,-1.589334279,,,,,,
1900HA100157,,"Maurys Lane",,50.971812388,-1.598134725,,,,,,
1900HA100159,,"Plaitford Village Hall",,50.972633913,-1.604351597,,,,,,
4600HA140022,,"Plaitford Service Station",,50.973540677,-1.611963762,,,,,,
4600WIA12323,,"Landford Garden Centre",,50.977017344,-1.627517522,,,,,,
4600HA140402,,"Landford Bridge",,50.978077424,-1.630030256,,,,,,
4600WIA12322,,"Royal Jaipur",,50.979075086,-1.632728774,,,,,,
4600HAA13562,,"Landford Pound",,50.98148214,-1.637567397,,,,,,
4600WIA12318,,"North Common Lane",,50.986781172,-1.641315808,,,,,,
4600WIA12315,,"Landford Wood",,50.992273485,-1.643610254,,,,,,
4600WIA12312,,"Barters Farm",,51.000874714,-1.645126283,,,,,,
4600WIA12310,,"Brympton Riding Stables",,51.005175414,-1.648898889,,,,,,
4600WIA12308,,"Whiteparish Primary School",,51.008013206,-1.650644889,,,,,,
4600WIA12295,,"Whiteparish Church",,51.011323899,-1.6511617,,,,,,
4600WIA12296,,"The White Hart",,51.01208118,-1.649672269,,,,,,
4600WIA12297,,"Green Close",,51.01302721,-1.646430587,,,,,,
4600WIA12299,,"Meadow Court",,51.011829946,-1.640110707,,,,,,
4600WIA12301,,"Cowesfield Green",,51.009660869,-1.630834011,,,,,,
1900HA100126,,"Sherfield English, Graemar Lane",,51.001794836,-1.596137264,,,,,,
1900HA100129,,"Hatchet Inn",,50.999785752,-1.584782573,,,,,,
1900HA100130,,"Newton Corner",,51.002924386,-1.567509963,,,,,,
1900HA100135,,"Shootash Crossroads",,50.997416907,-1.547397288,,,,,,
1900HA080067,,"Woodhaven & Ashford Hospitals",,50.93208601,-1.526066978,,,,,,
1900HA080069,,"Tatchbury Mount Hospital",,50.932123159,-1.531353231,,,,,,
1900HA080070,,"Ower Corner",,50.930721217,-1.540630836,,,,,,
1900HA080072,,"Winsor Baptist Church",,50.929046804,-1.544759549,,,,,,
1900HA080075,,"Winsor, Compass Inn",,50.927950206,-1.549522677,,,,,,
1900HA080077,,"Winsor Lane",,50.926650424,-1.552935819,,,,,,
1900HA080079,,"Pound Lane",,50.925771223,-1.555832559,,,,,,
1900HA080081,,"Budds Farm",,50.924097554,-1.560301742,,,,,,
1900HA081167,,"Bartley, Winsor Road",,50.919132604,-1.564801289,,,,,,
1900HA080097,,"Cadnam Garden Centre",,50.918717011,-1.56912987,,,,,,
1900HA080095,,"Coach and Horses",,50.919274013,-1.574432943,,,,,,
1900HA080093,,"Cadnam Roundabout, Southampton Road",,50.920249532,-1.580055884,,,,,,
1900HA080888,,"Lyndhurst, Pikes Hill",,50.876624979,-1.576951381,,,,,,
1900HA080217,,"The Forest Inn",,50.895974551,-1.513984712,,,,,,
1900HA080215,,"Whartons Lane",,50.898075867,-1.508985941,,,,,,
1900HA080214,,"Foxhills, Colbury Hall",,50.901953888,-1.503143038,,,,,,
1900HAA92167,,"Rushington, Cocklydown Lane",,50.906950031,-1.50460998,,,,,,
1900HA080111,,"Calmore Corner",,50.917646024,-1.503217878,,,,,,
1900HA080112,,"Abbotswood School",,50.917573725,-1.498922489,,,,,,
1900HA080113,,"Bagber Road",,50.917268953,-1.494971044,,,,,,
1900HAA19724,,"Bagber Road",,50.917214939,-1.494957403,,,,,,
1900HAA40450,,"Abbotswood School",,50.917456707,-1.498895294,,,,,,
1900HA080216,,"Whartons Lane",,50.896720576,-1.511744517,,,,,,
1900HA080218,,"The Forest Inn",,50.895456852,-1.514914329,,,,,,
1900HA080887,,"Lyndhurst, Pikes Hill",,50.876967454,-1.577161482,,,,,,
1900HA080092,,"Cadnam Roundabout, Southampton Road",,50.920365048,-1.579670729,,,,,,
1900HA080094,,"Coach and Horses",,50.919228275,-1.573677524,,,,,,
1900HA080096,,"Cadnam Garden Centre",,50.91889111,-1.570010279,,,,,,
1900HA081168,,"Bartley, Winsor Road",,50.919170055,-1.565199272,,,,,,
1900HA080080,,"Budds Farm",,50.924142836,-1.560386682,,,,,,
1900HA080078,,"Pound Lane",,50.925925008,-1.556072975,,,,,,
1900HA080076,,"Winsor Lane",,50.926963839,-1.552591332,,,,,,
1900HA080074,,"Winsor, Compass Inn",,50.928075327,-1.549322265,,,,,,
1900HA080073,,"Winsor Baptist Church",,50.929082883,-1.544787656,,,,,,
1900HA080071,,"Ower Corner",,50.93061443,-1.54091648,,,,,,
1900HA080068,,"Tatchbury Mount Hospital",,50.932248591,-1.53123813,,,,,,
1900HA080066,,"Woodhaven & Ashford Hospitals",,50.932171087,-1.525404556,,,,,,
1900HA110309,,"Kings Worthy, The King Charles",,51.10700917,-1.303003836,,,,,,
1900HA110312,,"Springvale Road, Tesco Express",,51.10249618,-1.304699882,,,,,,
1900HA110183,,"Nations Hill",,51.095311084,-1.303136815,,,,,,
1900HA110821,,"Nations Hill, Campion Way",,51.093084963,-1.300785571,,,,,,
1900HAA19560,,"Willis Waye",,51.090460171,-1.299440096,,,,,,
1900HA110180,,"St Mary's Church",,51.088352071,-1.298786583,,,,,,
1900HA110178,,"Taylors Corner",,51.086801872,-1.302707812,,,,,,
1900HA110172,,"School Lane",,51.082552583,-1.306412138,,,,,,
1900HA110166,,"Stoke Road",,51.077041417,-1.309634927,,,,,,
1900HA110168,,"Park Road",,51.074562979,-1.311741505,,,,,,
1900HA110162,,"Lankhills Road",,51.071442637,-1.314799357,,,,,,
1900HAA91044,,"Hyde Street",,51.069918681,-1.315606836,,,,,,
1900HA110171,,"Hyde Church Lane",,51.068782771,-1.316651173,,,,,,
1900HA110185,,"Andover Road, Jolly Farmer",,51.071571202,-1.319878629,,,,,,
1900HA110221,,"Weeke Primary School",,51.075184478,-1.333657242,,,,,,
1900HA110150,,"Stockbridge Road, Waitrose",,51.073247847,-1.336239993,,,,,,
1900HAA91710,,"Chilbolton Avenue, Postbox",,51.067668807,-1.33556336,,,,,,
1900HAA91983,,"Chilbolton Avenue, Bath Place",,51.061888542,-1.337458358,,,,,,
1900HA110130,,"Sleepers Hill",,51.058065124,-1.340338124,,,,,,
1900HA110131,,"Battery Hill",,51.056185411,-1.343475291,,,,,,
1900HAA91564,,"Pitt Park and Ride",,51.052817387,-1.349030022,,,,,,
1900HA110009,,"Olivers Battery",,51.049744413,-1.346234105,,,,,,
1900HA110010,,"Badger Farm, Ridgeway",,51.049677375,-1.342297577,,,,,,
1900HA110011,,"St Anne's Close",,51.050077281,-1.33826881,,,,,,
1900HA110012,,"Barley Down Drive",,51.048826746,-1.33657471,,,,,,
1900HA110013,,"Meadow Way Subway",,51.047114503,-1.339095609,,,,,,
1900HA110014,,"Badger Farm Sainsbury's",,51.046829615,-1.341196665,,,,,,
1900HA110008,,"Olivers Battery",,51.04985256,-1.347887469,,,,,,
1900HA110099,,"Pitt Roundabout",,51.05089075,-1.353479658,,,,,,
1900HA110037,,"Pitt Village",,51.049826635,-1.356190787,,,,,,
1900HAA91582,,"Yew Tree Cottage",,51.045952165,-1.36628707,,,,,,
1900HA110256,,"Standon Farm",,51.037892639,-1.39121383,,,,,,
1900HA110254,,"IBM Main Entrance",,51.030657648,-1.393675795,,,,,,
1900HA110251,,"Hursley, King's Head",,51.02524588,-1.390523905,,,,,,
1900HA110249,,"Poles Lane",,51.021581281,-1.391341842,,,,,,
1900HA110246,,"Red House",,51.013875318,-1.391428423,,,,,,
1900HA100021,,"Hook Road",,51.004000165,-1.392854527,,,,,,
1900HAA91033,,"Hursley Road, Hocombe Drive",,51.000048056,-1.391994026,,,,,,
1900HA030028,,"Cuckoo Bushes Lane",,50.994618992,-1.390711259,,,,,,
1900HA030027,,"Hursley Road, Common Road",,50.99217673,-1.389688832,,,,,,
1900HA030026,,"Hursley Road, Common Road",,50.992186094,-1.389759952,,,,,,
1900HA030029,,"Cuckoo Bushes Lane",,50.994781586,-1.390851624,,,,,,
1900HA100019,,"Hursley Road, Hocombe Drive",,50.999796658,-1.392068565,,,,,,
1900HA100020,,"Hook Road",,51.003487563,-1.392846963,,,,,,
1900HA110245,,"Red House",,51.013893895,-1.391542221,,,,,,
1900HA110250,,"Poles Lane",,51.02168197,-1.391682706,,,,,,
1900HA110252,,"Hursley, King's Head",,51.025788427,-1.391101406,,,,,,
1900HA110255,,"IBM Main Entrance",,51.031053652,-1.393741932,,,,,,
1900HA110257,,"Standon Farm",,51.039213226,-1.390968324,,,,,,
1900HAA91581,,"Yew Tree Cottage",,51.046157348,-1.365984704,,,,,,
1900HA110036,,"Pitt Village",,51.049748381,-1.356676923,,,,,,
1900HA110015,,"Pitt Park and Ride",,51.052391901,-1.350134546,,,,,,
1900HA110132,,"Battery Hill",,51.055848214,-1.344279071,,,,,,
1900HA110129,,"Sleepers Hill",,51.058458337,-1.339904472,,,,,,
1900HAA91982,,"Chilbolton Avenue, Bath Place",,51.061880521,-1.337629712,,,,,,
1900HAA91981,,"Chilbolton Avenue, Postbox",,51.067724459,-1.33586227,,,,,,
1900HA110149,,"Stockbridge Road, Waitrose",,51.073549425,-1.337092093,,,,,,
1900HA110222,,"Weeke Primary School",,51.075247256,-1.333627793,,,,,,
1900HA110186,,"Andover Road, Jolly Farmer",,51.071705909,-1.31984811,,,,,,
1900HA110170,,"Hyde Church Lane",,51.069471945,-1.316098681,,,,,,
1900HA110163,,"Edington Road",,51.071999189,-1.314634137,,,,,,
1900HA110169,,"Park Road",,51.07455508,-1.311927182,,,,,,
1900HA110167,,"Stoke Road",,51.076889658,-1.309822754,,,,,,
1900HA110173,,"School Lane",,51.082983156,-1.306234384,,,,,,
1900HAA13713,,"Taylors Corner",,51.086670829,-1.303352274,,,,,,
1900HA110179,,"St Mary's Church",,51.08842443,-1.29885688,,,,,,
1900HAA19561,,"Willis Waye",,51.090551624,-1.299695734,,,,,,
1900HA110181,,"Nations Hill, Campion Way",,51.09299539,-1.30084404,,,,,,
1900HA110184,,"Nations Hill",,51.095303113,-1.303308298,,,,,,
1900HAA09460,,"Legion Lane",,51.097968203,-1.302368552,,,,,,
1900HA110311,,"Springvale Road, Tesco Express",,51.102487528,-1.304757142,,,,,,
1900HA110310,,"Kings Worthy, The King Charles",,51.106634253,-1.303466553,,,,,,
1900HA110448,,"Grays Close",,50.992694084,-1.322029139,,,,,,
1900HA110450,,"Primary School",,50.99475523,-1.322355352,,,,,,
1900HAA91060,,"Community Centre",,50.996489538,-1.322144853,,,,,,
1900HA110527,,"Colden Common, Surgery",,50.997506723,-1.320776268,,,,,,
1900HA110525,,"Main Road",,50.998277219,-1.315663363,,,,,,
1900HA110523,,"Hunts Close",,50.998824705,-1.315484305,,,,,,
1900HA110458,,"Commons End",,51.002687937,-1.317964297,,,,,,
1900HA110460,,"Woodland Drove",,51.00644742,-1.318080224,,,,,,
1900HA110462,,"Highbridge Road",,51.011202056,-1.317682676,,,,,,
1900HAA91019,,"Manor Farm Green",,51.014480486,-1.317035858,,,,,,
1900HA110465,,"Twyford Crossroads",,51.018678952,-1.315334682,,,,,,
1900HA110466,,"Twyford, Northfields",,51.023214125,-1.312786998,,,,,,
1900HA110468,,"Hockley Cottages",,51.029117565,-1.315081139,,,,,,
1900HA110470,,"Hockley Golf Club",,51.036072134,-1.317217798,,,,,,
1900HAA10073,,"Hockley Link",,51.03709697,-1.320254886,,,,,,
1900HA030090,,"Fryern Hill, Waitrose",,50.987414945,-1.373481078,,,,,,
1900HAA92046,,"Peverells Road",,50.986153928,-1.371418027,,,,,,
1900HA030089,,"Constantine Avenue",,50.984976874,-1.369923804,,,,,,
1900HA030093,,Fernhill,,50.983136876,-1.368894512,,,,,,
1900HA030094,,"Oakmount Road, Hillcrest Avenue",,50.981116572,-1.371115646,,,,,,
1900HA030097,,"Toynbee School",,50.979472884,-1.373146338,,,,,,
1900HA030099,,"Cherwell Gardens",,50.979579837,-1.378016583,,,,,,
1900HA030100,,"Craven Road",,50.982782184,-1.378215989,,,,,,
1900HAA92045,,"Regent Road",,50.98428684,-1.380461032,,,,,,
1900HA030101,,"Regent Road",,50.983932611,-1.379796182,,,,,,
1900HAA91963,,"Ribble Close",,50.982050517,-1.377598958,,,,,,
1900HA030098,,"Cherwell Gardens",,50.979488403,-1.377732911,,,,,,
1900HA030096,,"Toynbee School",,50.979516391,-1.372875104,,,,,,
1900HA030095,,"Oakmount Road, Hillcrest Avenue",,50.980767427,-1.371405262,,,,,,
1900HA030092,,Fernhill,,50.98334307,-1.368777751,,,,,,
1900HA030088,,"Constantine Avenue",,50.984452358,-1.3693753,,,,,,
1900HAA09357,,"Peverells Road",,50.98588387,-1.371364686,,,,,,
1900HA030091,,"Fryern Hill Waitrose",,50.987379436,-1.373567038,,,,,,
1900HAA10072,,"Hockley Link",,51.037133434,-1.320339927,,,,,,
1900HA110471,,"Hockley Golf Club",,51.036080293,-1.317075058,,,,,,
1900HA110469,,"Hockley Cottages",,51.02951336,-1.315103828,,,,,,
1900HA110467,,"Twyford, Northfields",,51.024076141,-1.312574641,,,,,,
1900HA110464,,"Twyford Crossroads",,51.017719859,-1.315862033,,,,,,
1900HAA91020,,"Manor Farm Green",,51.014524861,-1.316935418,,,,,,
1900HA110463,,"Highbridge Road",,51.011596438,-1.317463074,,,,,,
1900HA110461,,"Woodland Drove",,51.006563313,-1.31790749,,,,,,
1900HA110459,,"Commons End",,51.00283122,-1.317862434,,,,,,
1900HA110524,,"Hunts Close",,50.998923363,-1.315440102,,,,,,
1900HA110526,,"Main Road",,50.998117122,-1.315964975,,,,,,
1900HA110451,,"Colden Common, Surgery",,50.997440003,-1.321675004,,,,,,
1900HAA91059,,"Community Centre",,50.996453076,-1.322059885,,,,,,
1900HA110449,,"Primary School",,50.994655331,-1.322185814,,,,,,
1900HA110447,,"Grays Close",,50.9922549,-1.322277762,,,,,,
1900HAA40507,,"Kents Oak, Awbridge School",,51.015715432,-1.544881356,,,,,,
1900HA100102,,"Lockerley, Kings Arms",,51.032373674,-1.572298666,,,,,,
1900HA100160,,"Mottisfont & Dunbridge Rail Station",,51.033517636,-1.546561057,,,,,,
1900HA100088,,"Berrys Pond",,51.02502423,-1.538459475,,,,,,
1900HA100076,,"Kimbridge, Bear & Ragged Staff",,51.030185088,-1.522608033,,,,,,
1900HA100072,,"Recreation Ground",,51.024408074,-1.508622856,,,,,,
1900HA100070,,"Timsbury WI Hall",,51.019501042,-1.505010686,,,,,,
1900HAA13551,,"Greatbridge Service Station",,50.998089245,-1.498412519,,,,,,
1900HAA90971,,"Robert Whitworth Drive (West)",,50.997505296,-1.49229126,,,,,,
1900HAA90972,,"Robert Whitworth Drive (East)",,50.998219607,-1.489062892,,,,,,
1900HAA90924,,"Cupernham Lane, Holmfield",,50.997564053,-1.485165549,,,,,,
1900HAA91644,,"Mercer Way",,50.995620175,-1.48481656,,,,,,
1900HAA09553,,"Great Well Drive",,50.993089748,-1.484003884,,,,,,
1900HA100048,,"The Crescent",,50.994722832,-1.47915528,,,,,,
1900HA100046,,"Winchester Road, Viney Avenue",,50.996738812,-1.47551325,,,,,,
1900HAA09005,,"Hillier Arboretum",,51.009707431,-1.46595952,,,,,,
1900HA100034,,"Jermyns Lane",,51.00879604,-1.444062202,,,,,,
1900HA100033,,"Pound Lane",,51.006794534,-1.433610166,,,,,,
1900HA100031,,"White Horse",,51.006611926,-1.431189389,,,,,,
1900HA100028,,"Ampfield School",,51.007710561,-1.427826438,,,,,,
1900HAA19706,,"Potters Heron Hotel",,51.007382886,-1.414318452,,,,,,
1900HA100017,,"Valley Park, Katrine Crescent",,50.990670007,-1.402645836,,,,,,
1900HAA09350,,"Knightwood Road",,50.986787855,-1.399632562,,,,,,
1900HA100009,,"Chidden Holt",,50.97916054,-1.402793464,,,,,,
1900HA100010,,"Valley Park, Chidden Holt",,50.979730623,-1.401732045,,,,,,
1900HA100027,,"Potters Heron Hotel",,51.007460456,-1.415443479,,,,,,
1900HA100029,,"Ampfield School",,51.008100892,-1.42673838,,,,,,
1900HA100030,,"White Horse",,51.006565857,-1.430961906,,,,,,
1900HA100032,,"Pound Lane",,51.006687116,-1.433711244,,,,,,
1900HAA09006,,"Hillier Arboretum",,51.009643707,-1.465789205,,,,,,
1900HA100047,,"Winchester Road, Viney Avenue",,50.99602438,-1.476618525,,,,,,
1900HA100049,,"The Crescent",,50.994095558,-1.479646767,,,,,,
1900HAA09551,,"Romsey Hospital",,50.992531537,-1.481815787,,,,,,
1900HA100242,,"Great Well Drive",,50.993126345,-1.484145967,,,,,,
1900HA100243,,"Mercer Way",,50.995602631,-1.484916501,,,,,,
1900HA100244,,"Cupernham Lane, Holmfield",,50.996998067,-1.485285809,,,,,,
1900HAA09554,,"Robert Whitworth Drive (East)",,50.998103024,-1.489135424,,,,,,
1900HAA09555,,"Robert Whitworth Drive (West)",,50.997423873,-1.492178148,,,,,,
1900HAA91217,,"Greatbridge Service Station",,50.998116526,-1.498483477,,,,,,
1900HA100071,,"Timsbury WI Hall",,51.019384691,-1.505140235,,,,,,
1900HA100073,,"Recreation Ground",,51.024381578,-1.508737203,,,,,,
1900HA100075,,"Kimbridge, Bear & Ragged Staff",,51.030104569,-1.52270868,,,,,,
1900HA100087,,"Berrys Pond",,51.024989557,-1.538787765,,,,,,
1900HA100161,,"Mottisfont & Dunbridge Rail Station",,51.033373931,-1.546605242,,,,,,
1900HA100101,,"Lockerley, Kings Arms",,51.032382405,-1.572227281,,,,,,
1900HAA40506,,"Kents Oak, Awbridge School",,51.015634338,-1.544839383,,,,,,
1900HA080454,,"The Kennels",,50.828239387,-1.376933697,,,,,,
1900HA080440,,"Holbury, Waltons Avenue",,50.832044351,-1.380518195,,,,,,
1900HA080296,,"Challenger Way",,50.863839671,-1.420323877,,,,,,
1900HA080441,,"Holbury, Waltons Avenue",,50.831797723,-1.379797276,,,,,,
1900HAA19813,,"The Kennels",,50.828823865,-1.37692592,,,,,,
1900HA080455,,"The Kennels",,50.827346832,-1.376505426,,,,,,
1900HA080321,,"Jones Lane Garage",,50.869003183,-1.406361567,,,,,,
1900HAA91984,,"Hollybank Crescent",,50.865555718,-1.402184991,,,,,,
1900HA080322,,"Jones Lane Garage",,50.868849814,-1.406264038,,,,,,
1900HA030073,,"Kingsway Gardens",,50.993976066,-1.366196978,,,,,,
1900HA030074,,"Kingsway Shops",,50.995740486,-1.36987786,,,,,,
1900HA030076,,"Lakewood Road",,50.996271334,-1.374957854,,,,,,
1900HAA09358,,"Pine Road",,50.997792924,-1.382076803,,,,,,
1900HAA91772,,"Hiltingbury Road, Hiltingbury Court",,50.99928533,-1.390578919,,,,,,
1900HA030018,,"Park Road",,50.984678602,-1.384829418,,,,,,
1900HA030016,,"Chandlers Ford Rail Station",,50.98323452,-1.383822797,,,,,,
1900HA030017,,"Chandlers Ford Rail Station",,50.983714986,-1.384557229,,,,,,
1900HA030019,,"Park Road",,50.984805086,-1.384941717,,,,,,
1900HA030541,,Yaverland,,50.878409833,-1.342649465,,,,,,
1900HA030542,,"Ingleside, Bowcombe",,50.880902969,-1.343040838,,,,,,
1980SN120734,,"Weston Lane, Wrights Hill",,50.893539359,-1.359569819,,,,,,
1980SN120744,,"Scott Road",,50.8909424,-1.363202482,,,,,,
1980SN120911,,"St Andrews Church",,50.898691733,-1.349744249,,,,,,
1980SN120344,,"Bursledon Road, Orpen Road",,50.903331258,-1.335259121,,,,,,
1980HA120776,,"Browning Avenue",,50.914628998,-1.331086836,,,,,,
1980SNA90980,,"Amira House",,50.91889004,-1.374880058,,,,,,
1980HA120777,,"Browning Avenue",,50.914304154,-1.330892344,,,,,,
1980SN120743,,"Scott Road",,50.890810621,-1.363772982,,,,,,
1980SN120733,,"Weston Lane, Wrights Hill",,50.893879567,-1.359295003,,,,,,
1900HAA09202,,"Ingleside, Bowcombe",,50.880977012,-1.342935035,,,,,,
1900HA030540,,Yaverland,,50.878511967,-1.34248599,,,,,,
1900HA100136,,"Embley Park Lodge",,50.989280064,-1.533969674,,,,,,
1900HA100213,,"Church Street Post Office",,50.989985994,-1.50023805,,,,,,
1900HAA19812,,"Malthouse Close",,50.992611509,-1.50018137,,,,,,
1900HAA13772,,"Romsey School",,50.993981262,-1.500864868,,,,,,
1900HAA13550,,"Malthouse Close",,50.992637997,-1.500067097,,,,,,
1900HA100214,,"Church Street Post Office",,50.989976575,-1.500138417,,,,,,
1900HA100137,,"Embley Park Lodge",,50.989136193,-1.533971114,,,,,,
1900HA100211,,"Cherville Street",,50.994594023,-1.499062895,,,,,,
1900HA100250,,"Woodley Lane, Ashley Meadows",,50.996022406,-1.482232918,,,,,,
1900HA100249,,"Carisbrooke Court",,50.998036144,-1.482110767,,,,,,
1900HA100245,,"Brook Way",,51.000608208,-1.480144001,,,,,,
1900HA100248,,"Cavendish Close",,51.002267539,-1.477175388,,,,,,
1900HAA91585,,"Horseshoe Drive",,51.002971155,-1.47366154,,,,,,
1900HA100247,,"Cavendish Close",,51.002195477,-1.477147695,,,,,,
1900HA100246,,"Brook Way",,51.00053602,-1.480087803,,,,,,
1900HAA09552,,"Carisbrooke Court",,50.99796383,-1.48202607,,,,,,
1900HAA40517,,"Woodley Lane, Ashley Meadows",,50.995610168,-1.482550993,,,,,,
1900HAA91251,,"Cupernham Lane",,50.995102923,-1.48375358,,,,,,
1900HA100212,,Priestlands,,50.994593596,-1.498963155,,,,,,
1900HA080353,,"Roberts Road",,50.868507614,-1.406168908,,,,,,
1900HA080352,,"Douglas Way",,50.86732343,-1.41027655,,,,,,
1900HA080350,,"Dale Road",,50.865538188,-1.411123237,,,,,,
1900HA080348,,"Copsewood Road",,50.864603188,-1.409387229,,,,,,
1900HA080346,,"Fern Road",,50.86301938,-1.409165674,,,,,,
1900HA080344,,"Hythe, Mullins Lane",,50.860717363,-1.409180545,,,,,,
1900HA080342,,"Lime Walk",,50.857363902,-1.418287224,,,,,,
1900HA080339,,"Dibden Purlieu, West Road",,50.855549708,-1.416945925,,,,,,
1900HA080337,,"Beaulieu Road",,50.853776689,-1.414851281,,,,,,
1900HA080399,,"Crete Lane",,50.852394632,-1.411828505,,,,,,
1900HA080400,,"Watermans Lane",,50.85195657,-1.410555493,,,,,,
1900HA080403,,"Carbould Road",,50.851641433,-1.408698521,,,,,,
1900HAA09182,,"Armitage Avenue",,50.852605028,-1.406738989,,,,,,
1900HA080405,,"Partridge Road",,50.853207286,-1.405382905,,,,,,
1900HA080407,,"Buttsash, Dukeswood Drive",,50.853752103,-1.402889877,,,,,,
1900HA080408,,"Grenville Gardens",,50.852985059,-1.400612487,,,,,,
1900HA080410,,"Buttsash, Chaloner Crescent",,50.852946245,-1.400058948,,,,,,
1900HA080430,,"Maple Road",,50.847575536,-1.394417622,,,,,,
1900HA080428,,"Buttsash, Cedar Road",,50.847036221,-1.396200136,,,,,,
1900HA080426,,"Elm Crescent",,50.846979526,-1.399155353,,,,,,
1900HA080424,,"Beech Crescent",,50.848271877,-1.400402973,,,,,,
1900HA080422,,"Ashleigh Close",,50.84954259,-1.400940686,,,,,,
1900HA080420,,"Warrys Close",,50.850153097,-1.400748202,,,,,,
1900HA080418,,"Yelverton Avenue",,50.852095728,-1.40079435,,,,,,
1900HA080394,,"Buttsash, Seadown Veterinary Hospital",,50.853829582,-1.398712225,,,,,,
1900HA080392,,"Furzedale Gardens",,50.854787959,-1.396227954,,,,,,
1900HA080391,,"Hart Hill",,50.855822601,-1.391128514,,,,,,
1900HA080389,,"Furzey Piece",,50.857606586,-1.390068146,,,,,,
1900HA080386,,"Langdown, Cormorant Drive",,50.859764111,-1.391659741,,,,,,
1900HA080385,,"Guillemot Close",,50.860106568,-1.393530776,,,,,,
1900HA080383,,"Bluebell Gardens",,50.859401955,-1.394648139,,,,,,
1900HA080375,,"Furzey Avenue",,50.859139332,-1.396029709,,,,,,
1900HA080373,,"Langdown, Queens Close",,50.86075161,-1.396534602,,,,,,
1900HA080370,,"Tates Road",,50.862132486,-1.394030234,,,,,,
1900HA080367,,"Seward Road",,50.86410607,-1.394843021,,,,,,
1900HA080365,,"Hobart Drive",,50.864815926,-1.398215739,,,,,,
1900HA080312,,"Dibden, Drapers Copse",,50.867954721,-1.423242886,,,,,,
1900HA080315,,"Fenwick House",,50.869182696,-1.418808121,,,,,,
1900HA080318,,Mountfield,,50.869693993,-1.414950544,,,,,,
1900HA080319,,"West Street",,50.869857412,-1.411679923,,,,,,
1900HA080364,,"Hobart Drive",,50.864960969,-1.398441228,,,,,,
1900HA080366,,"Seward Road",,50.864141817,-1.39479993,,,,,,
1900HA080371,,"Tates Road",,50.862096076,-1.393945453,,,,,,
1900HA080372,,"Langdown, Queens Close",,50.860733112,-1.396435382,,,,,,
1900HA080374,,"Furzey Avenue",,50.859831639,-1.396006561,,,,,,
1900HA080382,,"Bluebell Gardens",,50.859411241,-1.39470485,,,,,,
1900HA080384,,"Guillemot Close",,50.860169364,-1.393501545,,,,,,
1900HA080387,,"Langdown, Cormorant Drive",,50.859459002,-1.3900582,,,,,,
1900HA080388,,"Furzey Piece",,50.857615207,-1.389996997,,,,,,
1900HA080390,,"Hart Hill",,50.855786411,-1.391086364,,,,,,
1900HA080393,,"Furzedale Gardens",,50.854724868,-1.396200355,,,,,,
1900HA080395,,"Buttsash, Seadown Veterinary Hospital",,50.85368688,-1.39894136,,,,,,
1900HA080421,,"Warrys Close",,50.850189283,-1.400790354,,,,,,
1900HA080409,,"Grenville Gardens",,50.852949382,-1.400669769,,,,,,
1900HA080406,,"Buttsash, Dukeswood Drive",,50.853628321,-1.403303438,,,,,,
1900HA080404,,"Armitage Avenue",,50.852593271,-1.406655039,,,,,,
1900HA080402,,"Heatherstone Avenue",,50.851734876,-1.409393419,,,,,,
1900HA080401,,"Watermans Lane",,50.851920387,-1.410513331,,,,,,
1900HA080398,,"Crete Lane",,50.852358951,-1.411885777,,,,,,
1900HA080338,,"Beaulieu Road",,50.85375014,-1.414936851,,,,,,
1900HA080340,,"Dibden Purlieu, West Road",,50.855785202,-1.417283956,,,,,,
1900HA080341,,"Lime Walk",,50.857129331,-1.41813386,,,,,,
1900HA080343,,"Hythe, Mullins Lane",,50.86024438,-1.409896934,,,,,,
1900HA080345,,"Fern Road",,50.862677541,-1.409141575,,,,,,
1900HA080347,,"Copsewood Road",,50.864028421,-1.409536582,,,,,,
1900HA080349,,"Dale Road",,50.865547753,-1.411236795,,,,,,
1900HA080351,,"Douglas Way",,50.867350765,-1.410347258,,,,,,
1900HA080354,,"Roberts Road",,50.868543365,-1.406125821,,,,,,
1900HA080320,,"West Street",,50.869765917,-1.411368429,,,,,,
1900HA080317,,Mountfield,,50.869588153,-1.415363991,,,,,,
1900HA080314,,"Fenwick House",,50.869137524,-1.41876605,,,,,,
1900HA080313,,"Dibden, Drapers Copse",,50.867793918,-1.423458028,,,,,,
1900HA110127,,"University of Winchester",,51.061607929,-1.333966242,,,,,,
1900HA110126,,"Royal Hampshire County Hospital",,51.062203394,-1.329591063,,,,,,
1900HAA09321,,"West Hill",,51.062684356,-1.325659811,,,,,,
1900HAA91957,,"Clifton Hill",,51.063164133,-1.323098449,,,,,,
1980SNA13762,,"Red Jet Terminal",,50.894755657,-1.40594907,,,,,,
1980HA120546,,"Red Funnel Terminal [TB]",,50.896153184,-1.404907515,,,,,,
1980HAA13580,,"Red Funnel Terminal [TA]",,50.896116202,-1.404708918,,,,,,
1900HA110055,,"Winchester Broadway",,51.061277168,-1.309498311,,,,,,
1900HA110081,,"Baring Road",,51.062363063,-1.301562244,,,,,,
1900HA110086,,"Winnall, Fairdown Close",,51.062178571,-1.297783449,,,,,,
1900HA110084,,"Quarry Road",,51.062132875,-1.294673267,,,,,,
1900HA110416,,"St Swithun's School",,51.062044274,-1.288952329,,,,,,
1900HA110415,,"Magdalen Hill Down",,51.06195922,-1.282389425,,,,,,
1900HA110413,,"Fair Lane",,51.061902098,-1.276040157,,,,,,
1900HA110411,,"Magdalen Hill Cemetery",,51.061877738,-1.272116288,,,,,,
1900HA110408,,"Science Centre",,51.061738612,-1.26140173,,,,,,
1900HAA19742,,"Cheesefoot Head",,51.046430071,-1.246737934,,,,,,
1900HA110737,,"Hinton Ampner House",,51.04736724,-1.154937946,,,,,,
1900HA110735,,"Hinton Ampner Village",,51.047962296,-1.150190873,,,,,,
1900HA110734,,"New Cottages",,51.050237778,-1.134313413,,,,,,
1900HA110732,,"Bramdean Fox Inn",,51.047289037,-1.124753339,,,,,,
1900HA110729,,"Woodcote Manor",,51.044310419,-1.112541805,,,,,,
1900HA110727,,"Tithelands Lane",,51.04307436,-1.108457286,,,,,,
1900HA110726,,"Brockwood Park School",,51.040318475,-1.103204146,,,,,,
1900HA110724,,"The Dean",,51.037388842,-1.096443162,,,,,,
1900HA110721,,"Brockwood Bottom",,51.034740319,-1.090034065,,,,,,
1900HA110720,,"Pest Houses",,51.031613082,-1.084547826,,,,,,
1900HA110717,,"West Meon Crossroads",,51.03134729,-1.07591104,,,,,,
1900HAA92090,,"Marlands Lane",,51.026750011,-1.07654999,,,,,,
1900HA110705,,"Headon View",,51.012843256,-1.086513893,,,,,,
1900HA110701,,"Windmere Cottages",,51.007868066,-1.097786379,,,,,,
1900HA110700,,"The George & Falcon",,51.004119577,-1.110871506,,,,,,
1900HA110695,,"Peake New Road",,50.995821521,-1.11825472,,,,,,
1900HA110693,,"Church Lane",,50.987283694,-1.121308628,,,,,,
1900HA110692,,"Exton, Stocks Lane",,50.982449382,-1.1277962,,,,,,
1900HA110689,,"The Butts",,50.980803842,-1.130220222,,,,,,
1900HA110690,,"The Butts",,50.9810648,-1.130243838,,,,,,
1900HA110691,,"Exton, Stocks Lane",,50.982443899,-1.128266412,,,,,,
1900HA110694,,"Church Lane",,50.987785058,-1.121014217,,,,,,
1900HA110696,,"Peake New Road",,50.995957141,-1.1183519,,,,,,
1900HAA91671,,"Old Winchester Hill",,50.9883561,-1.080697073,,,,,,
1900HA020056,,"Sunderton Lane",,50.945826063,-1.002348837,,,,,,
1900HA020054,,"Clanfield, Green Lane",,50.944579543,-0.99436162,,,,,,
1900HA020070,,"Chalton Lane",,50.947213637,-0.983884721,,,,,,
1900HA020071,,"Hogs Lodge Inn",,50.952445048,-0.982589029,,,,,,
1900HA020073,,"Queen Elizabeth County Park",,50.964858826,-0.979954032,,,,,,
1900HA020074,,"Buriton Crossroads",,50.984561489,-0.960560277,,,,,,
1900HA020082,,"Bolinge Hill Farm",,50.987848199,-0.95601316,,,,,,
1900HA020084,,"The Causeway",,50.994553235,-0.946614764,,,,,,
1900HA020085,,"Kennet Road",,50.996188372,-0.944454486,,,,,,
1900HA020089,,"Cranford Road",,50.999375347,-0.938895522,,,,,,
1900HA020103,,"Dragon Street",,51.003204265,-0.934732047,,,,,,
1900HA020105,,"Petersfield Square",,51.004136789,-0.93838785,,,,,,
1900HA020118,,"Petersfield Rail Station",,51.00670404,-0.9408521,,,,,,
1900HA020104,,"Petersfield Square",,51.004169256,-0.93800229,,,,,,
1900HA020102,,"Dragon Street",,51.003095988,-0.93469177,,,,,,
1900HA020088,,"Cranford Road",,50.998519353,-0.939698838,,,,,,
1900HA020086,,"Kennet Road",,50.996986945,-0.942270318,,,,,,
1900HA020083,,"The Causeway",,50.993891389,-0.947014479,,,,,,
1900HA020081,,"Bolinge Hill Farm",,50.987505914,-0.9559496,,,,,,
1900HA020075,,"Buriton Crossroads",,50.984253002,-0.959242247,,,,,,
1900HA020072,,"Queen Elizabeth County Park",,50.959260413,-0.979378892,,,,,,
1900HA020069,,"Chalton Lane",,50.947284821,-0.983797759,,,,,,
1900HA020055,,"Clanfield, Green Lane",,50.944648603,-0.995071845,,,,,,
1900HA020057,,"Sunderton Lane",,50.94595582,-1.003854936,,,,,,
1900HAA91672,,"Old Winchester Hill",,50.988393073,-1.080824571,,,,,,
1900HA110699,,"The George & Falcon",,51.004204615,-1.111411472,,,,,,
1900HA110702,,"Windmere Cottages",,51.008048293,-1.096671103,,,,,,
1900HA110706,,"Headon View",,51.012871232,-1.086641639,,,,,,
1900HAA92089,,"Marlands Lane",,51.026779988,-1.076849982,,,,,,
1900HA110718,,"West Meon Crossroads",,51.031291314,-1.075655459,,,,,,
1900HA110719,,"Pest Houses",,51.031559582,-1.084605923,,,,,,
1900HA110722,,"Brockwood Bottom",,51.035215287,-1.090980315,,,,,,
1900HA110723,,"The Dean",,51.037326346,-1.096501428,,,,,,
1900HA110725,,"Brockwood Park School",,51.040017939,-1.102710727,,,,,,
1900HA110728,,"Tithelands Lane",,51.043020631,-1.108486846,,,,,,
1900HA110730,,"Woodcote Manor",,51.044267412,-1.112799391,,,,,,
1900HA110731,,"Bramdean Fox Inn",,51.047190776,-1.124840784,,,,,,
1900HA110733,,"New Cottages",,51.050174946,-1.13432885,,,,,,
1900HA110736,,"Hinton Ampner Village",,51.047959289,-1.14977722,,,,,,
1900HA110738,,"Hinton Ampner House",,51.047263571,-1.155524721,,,,,,
1900HAA91684,,"Cheesefoot Head",,51.046385297,-1.246767191,,,,,,
1900HA110409,,"Science Centre",,51.061712011,-1.262886228,,,,,,
1900HA110410,,"Magdalen Hill Cemetery",,51.061788535,-1.272231846,,,,,,
1900HA110412,,"Fair Lane",,51.061837833,-1.275827109,,,,,,
1900HA110414,,"Magdalen Hill Down",,51.061898381,-1.282732845,,,,,,
1900HA110085,,"St Swithun's School",,51.061980119,-1.288753531,,,,,,
1900HA110083,,"Quarry Road",,51.062046918,-1.295330995,,,,,,
1900HA110082,,"Winnall, Fairdown Close",,51.06210938,-1.298241137,,,,,,
1900HAA19693,,"Baring Road",,51.062263475,-1.301449581,,,,,,
1900HA110067,,"Middle Brook Street",,51.062628081,-1.312903071,,,,,,
1900HAA10097,,"Winchester Discovery Centre",,51.065298307,-1.315889012,,,,,,
1900HA110106,,"City Road",,51.066303036,-1.317015913,,,,,,
1900HA080115,,"Netley Marsh, White Horse",,50.915163643,-1.529162147,,,,,,
1900HA080116,,"Willswood Farm",,50.910594017,-1.532602959,,,,,,
1900HA080118,,"Ridge Farm",,50.90834635,-1.535645396,,,,,,
1900HA080121,,"Woodlands, Gamekeeper",,50.90529106,-1.540050865,,,,,,
1900HA080123,,"Cedar View",,50.903152882,-1.543547173,,,,,,
1900HA080124,,"Woodlands Drive",,50.901690855,-1.54681803,,,,,,
1900HA080127,,Foyers,,50.900394314,-1.551054077,,,,,,
1900HA080128,,"Foyers Farm",,50.901181515,-1.554672783,,,,,,
1900HA080131,,"Purkiss Close",,50.906051662,-1.556048564,,,,,,
1900HA080132,,"Bartley Village Hall",,50.908372655,-1.553935739,,,,,,
1900HA080134,,"Bourne Bridge",,50.912075554,-1.553416752,,,,,,
1900HA080136,,"Bourne Road",,50.914783317,-1.553689574,,,,,,
1900HA080138,,"Home Lea",,50.914107364,-1.558020317,,,,,,
1900HA080141,,"Shepherds Road",,50.914269113,-1.562769821,,,,,,
1900HA080143,,Abbotsford,,50.91548435,-1.565518096,,,,,,
1900HA080145,,"The Haywain",,50.9175245,-1.565214597,,,,,,
1900HA080091,,"Barleycorn Walk",,50.922407026,-1.57986575,,,,,,
1900HA080088,,"Newbridge Road",,50.925767769,-1.574229605,,,,,,
1900HA080087,,"Copythorne Crossroads",,50.928518034,-1.568939785,,,,,,
1900HA080084,,"Soffe's Yard",,50.92545971,-1.566264698,,,,,,
1900HA080083,,"Copythorne Parish Hall",,50.92310207,-1.563412682,,,,,,
1900HAA19730,,"Totton Police Station [L]",,50.919827812,-1.487858622,,,,,,
1900HAA91118,,"West Totton, Morrisons",,50.923052156,-1.520844941,,,,,,
1900HAA91116,,"Stonechat Drive",,50.922924608,-1.5160801,,,,,,
1900HA080082,,"Copythorne Parish Hall",,50.922940212,-1.563414196,,,,,,
1900HA080085,,"Soffe's Yard",,50.925460027,-1.566350064,,,,,,
1900HA080086,,"Copythorne Crossroads",,50.928482328,-1.56901126,,,,,,
1900HA080089,,"Newbridge Road",,50.925212848,-1.574946066,,,,,,
1900HA080090,,"Barleycorn Walk",,50.923014136,-1.578650963,,,,,,
1900HA080144,,"The Haywain",,50.917290176,-1.565074524,,,,,,
1900HA080142,,Abbotsford,,50.914909014,-1.565566124,,,,,,
1900HA080140,,"Shepherds Road",,50.914368026,-1.562768895,,,,,,
1900HA080139,,"Home Lea",,50.914169986,-1.557934376,,,,,,
1900HA080137,,"Bourne Road",,50.914828278,-1.553689145,,,,,,
1900HA080135,,"Bourne Bridge",,50.91206629,-1.553345721,,,,,,
1900HA080133,,"Bartley Village Hall",,50.908597403,-1.55391937,,,,,,
1900HA080130,,"Purkiss Close",,50.906015153,-1.555906689,,,,,,
1900HA080129,,"Foyers Farm",,50.90117171,-1.554459566,,,,,,
1900HA080126,,Foyers,,50.9005486,-1.551422327,,,,,,
1900HA080125,,"Woodlands Drive",,50.901800304,-1.547215152,,,,,,
1900HA080122,,"Cedar View",,50.903369359,-1.543715714,,,,,,
1900HA080120,,"Woodlands, Gamekeeper",,50.904897819,-1.541354184,,,,,,
1900HA080119,,"Ridge Farm",,50.908829999,-1.535157004,,,,,,
1900HA080117,,"Willswood Farm",,50.911379026,-1.532235951,,,,,,
1900HA080101,,"Netley Marsh, White Horse",,50.915448808,-1.528519145,,,,,,
1900HA100217,,"Romsey Bus Station",,50.98813533,-1.498548243,,,,,,
1900HAA09442,,"Romsey Rail Station",,50.991624252,-1.494350159,,,,,,
1900HAA92348,,"A3057, Mottisfont Lane",,51.037519962,-1.525099935,,,,,,
1900HA100185,,"Horsebridge, John o' Gaunt Inn",,51.071992725,-1.508090837,,,,,,
1900WIA13716,,"Faithfulls Drove",,51.083079994,-1.516740024,,,,,,
1900HA100181,,"Houghton Village Hall",,51.087462173,-1.513081118,,,,,,
1900HAA92258,,"Houghton Lodge Gardens",,51.096503847,-1.512015136,,,,,,
1900HA100174,,"St Peter's Church",,51.114283613,-1.493513333,,,,,,
1900HAA13738,,"New Street",,51.113962941,-1.490073932,,,,,,
1900HAA13739,,"New Street",,51.11379216,-1.490090097,,,,,,
1900HA100173,,"Stockbridge Town Hall",,51.114223452,-1.49415686,,,,,,
1900HAA92264,,"Danebury Hill Fort",,51.138739962,-1.526199989,,,,,,
1900HAA92257,,"Beech Close",,51.157865775,-1.559571886,,,,,,
1900HA100275,,"White Horse Service Station",,51.158363283,-1.56275596,,,,,,
1900HA100272,,"Wallop AAC",,51.156036929,-1.565866491,,,,,,
1900HAA13753,,"Army Flying Museum",,51.149905337,-1.573472788,,,,,,
1900HA100270,,"Wallop Industries",,51.147961661,-1.575563666,,,,,,
1900HA100260,,"The George Inn",,51.140309501,-1.585625302,,,,,,
1900HA100264,,"Over Wallop War Memorial",,51.143879062,-1.595828657,,,,,,
1900HAA92259,,"Appleton Close",,51.145379978,-1.601349942,,,,,,
1900HAA92260,,"Grateley Rail Station",,51.170240003,-1.622119932,,,,,,
1900HAA92261,,"Chapel Lane",,51.175949986,-1.603220005,,,,,,
1900HAA92084,,"Hay Down Lane",,51.188604063,-1.582631336,,,,,,
1900HAA92085,,"Amport Primary School",,51.196960619,-1.568573521,,,,,,
1900HAA92262,,"Wiremead Lane",,51.197799978,-1.564820004,,,,,,
1900HA100366,,"The Hawk Inn",,51.199376226,-1.560450221,,,,,,
1900HA100364,,"Monxton Crossroads",,51.198024747,-1.552620171,,,,,,
1900HA100362,,Sunnybank,,51.202544993,-1.540309938,,,,,,
1900HAA09470,,"Ramillies Building",,51.207621075,-1.523468115,,,,,,
1900HA100542,,"Gregorys Corner",,51.210654692,-1.513344185,,,,,,
1900HA100538,,"Cheavley Close",,51.209353468,-1.50751721,,,,,,
1900HA100536,,"St Andrew's Church",,51.20885633,-1.504773983,,,,,,
1900HA100535,,"Colebrook Way",,51.207844003,-1.50034835,,,,,,
1900HA100533,,"Lynwood Drive",,51.207479575,-1.496113958,,,,,,
1900HAA91161,,"Avenue Close",,51.208586474,-1.493609329,,,,,,
1900HA100575,,"Andover Rail Station",,51.211650958,-1.49174499,,,,,,
1900HA100572,,"The Folly Roundabout",,51.212337022,-1.488229939,,,,,,
1900HA100569,,"Andover College",,51.210522385,-1.484527943,,,,,,
1900HA100508,,"Andover Bus Station",,51.208408321,-1.482275428,,,,,,
1900HA100570,,"Andover College",,51.210596019,-1.484913647,,,,,,
1900HA100571,,"The Folly Roundabout",,51.212476189,-1.487154669,,,,,,
1900HA100573,,"Station Approach",,51.212109677,-1.489707033,,,,,,
1900HA100576,,"Andover Rail Station",,51.211552237,-1.491789024,,,,,,
1900HAA91160,,"Avenue Close",,51.208480693,-1.493538912,,,,,,
1900HA100532,,"Lynwood Drive",,51.207436403,-1.496529559,,,,,,
1900HA100534,,"Colebrook Way",,51.207592666,-1.499419457,,,,,,
1900HA100537,,"St Andrew's Church",,51.20881228,-1.504989183,,,,,,
1900HA100539,,"Cheavley Close",,51.20953002,-1.508875296,,,,,,
1900HA100541,,"Gregorys Corner",,51.210509518,-1.513030768,,,,,,
1900HAA09471,,"Ramillies Building",,51.207584409,-1.523296715,,,,,,
1900HA100363,,Sunnybank,,51.202437374,-1.540382575,,,,,,
1900HA100365,,"Monxton Crossroads",,51.197970743,-1.552606382,,,,,,
1900HA100813,,"The Hawk Inn",,51.19910049,-1.561254327,,,,,,
1900HAA92082,,"Wiremead Lane",,51.197702044,-1.564816919,,,,,,
1900HA100376,,"Amport Primary School",,51.196888369,-1.568488327,,,,,,
1900HA100375,,"Hay Down Lane",,51.188549398,-1.582431505,,,,,,
1900HA100374,,"Chapel Lane",,51.175834524,-1.603059635,,,,,,
1900HAA19643,,"Grateley Rail Station",,51.170196652,-1.622116996,,,,,,
1900HAA13752,,"Appleton Close",,51.145470916,-1.60114702,,,,,,
1900HA100262,,"The George Inn",,51.140352332,-1.58502457,,,,,,
1900HA100271,,"Wallop Industries",,51.147944196,-1.57570679,,,,,,
1900HAA13754,,"Army Flying Museum",,51.149538653,-1.574019447,,,,,,
1900HA100273,,"Wallop AAC",,51.156860983,-1.565000815,,,,,,
1900HA100274,,"White Horse Service Station",,51.158319019,-1.562942273,,,,,,
1900HAA10120,,"Beech Close",,51.157891997,-1.559371444,,,,,,
1900HAA92265,,"Danebury Hill Fort",,51.138800005,-1.525749985,,,,,,
1900HA100177,,"Houghton Lodge Gardens",,51.096494439,-1.511915271,,,,,,
1900HA100180,,"The Boot Inn",,51.09111641,-1.511743391,,,,,,
1900HA100182,,"Houghton Village Hall",,51.087452885,-1.513009827,,,,,,
1900HA100183,,"Faithfulls Drove",,51.083088749,-1.516638999,,,,,,
1900HA100186,,"Horsebridge, John o' Gaunt Inn",,51.072028332,-1.508004822,,,,,,
1900HAA92349,,"A3057, Mottisfont Lane",,51.037270012,-1.525020052,,,,,,
1900HA100852,,"Romsey Rail Station",,50.991659665,-1.494221539,,,,,,
1980SNA90982,,"Southampton, Albion Place [BD]",,50.901909994,-1.405259942,,,,,,
1980SN120788,,"Albany Park Court",,50.923565252,-1.403732838,,,,,,
1980SN120282,,"Bentley Court",,50.924462995,-1.401609956,,,,,,
1980SN120281,,"Tennyson Court",,50.925822564,-1.398510682,,,,,,
1980SN120276,,"Portswood Waitrose [PF]",,50.924894104,-1.394595729,,,,,,
1980HAA13668,,"Highfield Interchange [B]",,50.936272159,-1.396838953,,,,,,
1980SN120131,,"Burgess Road Library",,50.93811078,-1.395904329,,,,,,
1980SN120139,,"Bealing Close",,50.938569588,-1.390746349,,,,,,
1980SN120137,,"Tulip Road",,50.938657719,-1.388681533,,,,,,
1980SN120144,,"Woodcote Road",,50.938585082,-1.386832304,,,,,,
1980HAA13379,,"Aster Road",,50.9380826,-1.383622477,,,,,,
1980HAA13380,,"High Road",,50.937118865,-1.381628541,,,,,,
1980SN120160,,"Wessex Lane Halls",,50.937417164,-1.376842701,,,,,,
1980HAA13650,,"Friars Way",,50.939381202,-1.375848657,,,,,,
1980SN120162,,"Swaythling Station",,50.94175992,-1.375048233,,,,,,
1900HA030183,,"Airport Parkway Station",,50.949773223,-1.363580832,,,,,,
1980HAA13579,,NOCS,,50.893352664,-1.39540267,,,,,,
1900HA030184,,"Southampton Airport",,50.950594149,-1.360765166,,,,,,
1900HAA19776,,"Royal Mail Centre",,50.948426164,-1.363912393,,,,,,
1980SN120163,,"Swaythling Station",,50.941669773,-1.375006742,,,,,,
1980HAA13651,,"Friars Way",,50.939389662,-1.375748917,,,,,,
1980SN120161,,"Wessex Lane Halls",,50.937265441,-1.377058204,,,,,,
1980HAA13381,,"High Road",,50.937006834,-1.38163145,,,,,,
1980SN120278,,"Portswood Waitrose [PE]",,50.924794899,-1.394540104,,,,,,
1980SN120280,,"Tennyson Court",,50.925465819,-1.399084406,,,,,,
1980SN120283,,"Bentley Court",,50.924052607,-1.402318067,,,,,,
1980SN120399,,"Albany Park Court",,50.923211308,-1.404861329,,,,,,
1980SNA90926,,"City Centre, Mayflower Halls [SG]",,50.90831435,-1.40910475,,,,,,
1980SNA13670,,"Avenue Campus",,50.928612301,-1.404180591,,,,,,
1980SNA09299,,"Omdurman Road",,50.930809714,-1.403056837,,,,,,
1980SNA19495,,"Furzedown Road",,50.932526286,-1.402864109,,,,,,
1980SN120121,,"Boldrewood Campus",,50.93683549,-1.403221663,,,,,,
1980SN120127,,"Glen Eyre Road",,50.937496985,-1.400694169,,,,,,
1980SNA90971,,"Highfield, Centenary Building [A]",,50.936880011,-1.39724993,,,,,,
1980SNA90950,,"Glen Eyre Halls, Chamberlain",,50.941622248,-1.402007535,,,,,,
1980SNA90932,,"Honeysuckle Road",,50.93925936,-1.390239207,,,,,,
1980SN120142,,"Daisy Dip",,50.941506934,-1.388416457,,,,,,
1980SN120031,,"Bassett Green, Lobelia Road",,50.943770933,-1.388016689,,,,,,
1980SNA09298,,"Southampton Crematorium",,50.945207405,-1.391015483,,,,,,
1980SNA90866,,"Westbrook Court",,50.949268681,-1.399062388,,,,,,
1980SNA09313,,"Glenwood Avenue",,50.946141838,-1.404824937,,,,,,
1980SN120124,,"Hartley Grove",,50.941248188,-1.400959092,,,,,,
1980SN120126,,"Elmsleigh Gardens",,50.938570965,-1.399698352,,,,,,
1980SN120146,,"Aster Road",,50.938542834,-1.383929503,,,,,,
1980SNA19670,,"Channels Farm Road",,50.942663555,-1.377555436,,,,,,
1980SNA90966,,"Bassett Green Road, Leaside Way",,50.943336268,-1.382314717,,,,,,
1980SNA90967,,"Ethelburt Avenue",,50.943550974,-1.38551445,,,,,,
1900HA100776,,"Pinelands Road",,50.958345848,-1.405082022,,,,,,
1900HA100774,,"Green Lane",,50.96100871,-1.407069968,,,,,,
1900HA100772,,"The Orchard",,50.963713954,-1.412119165,,,,,,
1900HA100770,,"The Chilworth Arms",,50.964492669,-1.416780079,,,,,,
1900HAA92233,,"Fibercore House",,50.962599979,-1.421780035,,,,,,
1900HAA91511,,"Southampton Science Park, Turning Circle",,50.962207861,-1.426203086,,,,,,
1900HAA92235,,"Southampton Science Park, Turning Circle",,50.96198071,-1.430928483,,,,,,
1900HAA92234,,"Fibercore House",,50.962636244,-1.421966977,,,,,,
1900HA100771,,"The Chilworth Arms",,50.964489754,-1.416196273,,,,,,
1900HA100773,,"The Orchard",,50.963654984,-1.411123122,,,,,,
1900HA100775,,"Green Lane",,50.960710173,-1.406717794,,,,,,
1900HA100777,,"Pinelands Road",,50.958372389,-1.404996254,,,,,,
1980SNA90951,,"St James Park",,50.927199923,-1.429283762,,,,,,
1980SNA90952,,"St James Park",,50.92698224,-1.428902253,,,,,,
460000215,,"Salisbury City Centre, Endless Street [D]",,51.069797931,-1.794429719,,,,,,
4600WIA11904,,"Salisbury City Centre, Brown Street [Y]",,51.067456517,-1.792470612,,,,,,
4600WIA11905,,"Exeter Street, St Osmunds School",,51.062836006,-1.794312962,,,,,,
4600WIY38549,,"Wiltshire College",,51.064081632,-1.785907003,,,,,,
4600WIA12102,,"Southampton Road Retail Park",,51.063191913,-1.781316103,,,,,,
4600WIY42912,,"Bourne Way Roundabout",,51.061212255,-1.775831631,,,,,,
460000588,,"Hughenden Manor",,51.061080015,-1.765299925,,,,,,
4600WIA12267,,"Clarendon Place",,51.060019963,-1.762729971,,,,,,
4600WIA12269,,"Marshmead Close",,51.057816698,-1.759467732,,,,,,
4600WIA12270,,"Shute End",,51.053121668,-1.754598414,,,,,,
4600WIA12273,,"Green Dragon",,51.045646077,-1.740658369,,,,,,
4600WIA12275,,"Alderbury Crossroads",,51.044692377,-1.736398601,,,,,,
4600WIA12276,,"Lights Lane",,51.042523056,-1.73147561,,,,,,
4600WIA12278,,"Alderbury Village Hall",,51.040339167,-1.728107849,,,,,,
4600WIA12280,,"Avon Drive",,51.038449498,-1.723711757,,,,,,
4600WIA12281,,"Grimstead Road",,51.03712449,-1.722378983,,,,,,
4600WIA12283,,"Whaddon Post Office",,51.035502421,-1.720919712,,,,,,
4600WIA12285,,"Pepperbox Hill",,51.022038444,-1.701638708,,,,,,
4600WIA12287,,"Lime Kiln Quarry",,51.016481785,-1.688059988,,,,,,
4600WIA12291,,"Brickworth Corner",,51.012530332,-1.679975577,,,,,,
4600WIA12294,,"Newton Bungalows",,51.010413121,-1.656371241,,,,,,
4600WIA12348,,"Landford, Lyndhurst Road",,50.979359301,-1.637355999,,,,,,
460000114,,"Landford Primary School",,50.97593433,-1.637710256,,,,,,
4600WIA12346,,"Methodist Chapel",,50.974227728,-1.638335971,,,,,,
4600WIA12344,,"Landford Post Office",,50.96921077,-1.635683278,,,,,,
4600WIY42982,,"Landford Beech Grange",,50.96754452,-1.634827608,,,,,,
4600WIA12341,,"Landford Old Bakery",,50.965977177,-1.633971222,,,,,,
4600WIA12340,,"Nomansland Crossroads",,50.961114103,-1.631674221,,,,,,
4600541,,"Greenhill Farm",,50.964589959,-1.626109961,,,,,,
1900HA100152,,"West Wellow, Canada Corner",,50.968516429,-1.583921939,,,,,,
1900HA100151,,"Wellow Chatmohr Office Village",,50.966788244,-1.578440464,,,,,,
1900HA100148,,"Blackhill Road",,50.964121715,-1.569721301,,,,,,
1900HA080008,,"Vine Inn",,50.95207921,-1.536348896,,,,,,
1900HA080010,,"Ower, Mortimer Arms",,50.947141881,-1.538490486,,,,,,
1900HA080011,,"Golden Gutter",,50.943098492,-1.537021748,,,,,,
1900HA080016,,"Hill Street",,50.938284576,-1.516305042,,,,,,
1900HA080017,,"Cooks Lane",,50.934451834,-1.511506296,,,,,,
1900WIA13745,,"Paultons Park Main Entrance",,50.94839028,-1.551958747,,,,,,
4600WIA12351,,"Newton, Moor Lane",,51.003389012,-1.665273498,,,,,,
4600WIA12293,,"Newton Bungalows",,51.010135958,-1.656914937,,,,,,
4600WIA12292,,"Brickworth Corner",,51.012376569,-1.679648778,,,,,,
4600WIA12288,,"Lime Kiln Quarry",,51.016428402,-1.688274184,,,,,,
4600WIA12286,,"Pepperbox Hill",,51.02187655,-1.701625489,,,,,,
4600WIA12284,,"Whaddon Post Office",,51.03558403,-1.721204457,,,,,,
4600WIA12282,,"The Sandringhams",,51.03711587,-1.722535919,,,,,,
460000387,,"Avon Drive",,51.038386857,-1.723840492,,,,,,
4600WIA12279,,"Alderbury Village Hall",,51.039978522,-1.727696329,,,,,,
4600WIA12277,,"Lights Lane",,51.042767052,-1.732001966,,,,,,
4600WIA12274,,"Alderbury Crossroads",,51.044856096,-1.737225017,,,,,,
4600WIA12272,,"Green Dragon",,51.045610045,-1.740630041,,,,,,
4600WIA12271,,"Shute End",,51.053013883,-1.754656051,,,,,,
4600WIA12268,,"Marshmead Close",,51.057736033,-1.759596566,,,,,,
4600WIA12266,,"Clarendon Place",,51.059819964,-1.762989977,,,,,,
460000587,,"Hughenden Manor",,51.061059975,-1.765619949,,,,,,
4600WIA90880,,"Petersfinger Park and Ride",,51.062315968,-1.771745968,,,,,,
4600WIY42913,,"Bourne Way Roundabout",,51.061333286,-1.778000029,,,,,,
4600WIA12103,,"Southampton Road Retail Park",,51.063075176,-1.781402273,,,,,,
4600WIY38548,,"Wiltshire College",,51.063965648,-1.786407002,,,,,,
4600WIA11906,,"Exeter Street, St Osmunds School",,51.062406695,-1.794605112,,,,,,
4600WIA11971,,"Catherine Street",,51.067207085,-1.793798967,,,,,,
4600WIA90879,,"Salisbury City Centre, Milford Street [W]",,51.068737978,-1.793380002,,,,,,
1900HAA91794,,"Whinwhistle Corner",,50.963199673,-1.5659848,,,,,,
4600542,,"Greenhill Farm",,50.964529962,-1.626020019,,,,,,
4600WIA12339,,"Nomansland Crossroads",,50.961579879,-1.631922714,,,,,,
4600WIA12342,,"Landford Old Bakery",,50.965860592,-1.63407182,,,,,,
4600WIY42983,,"Landford Beech Grange",,50.9675179,-1.634941743,,,,,,
4600WIA12343,,"Landford Post Office",,50.969193318,-1.635854311,,,,,,
4600WIA12345,,"Methodist Chapel",,50.974102279,-1.638479373,,,,,,
4600WIY42984,,"Landford School",,50.975916787,-1.637852827,,,,,,
4600WIA12349,,"Landford, Lyndhurst Road",,50.979027035,-1.63750103,,,,,,
4600WIA11758,,"Salisbury City Centre, New Canal [U]",,51.068503348,-1.794592437,,,,,,
4600WIA11974,,"Salisbury City Centre, Castle Street [K]",,51.069936602,-1.796598489,,,,,,
4600WIA11975,,"Castle Street Whites [H]",,51.071222121,-1.796393044,,,,,,
4600WIA11977,,"Mill Stream Approach",,51.073317173,-1.796326769,,,,,,
4600WIA11979,,"Milford Hall Hotel",,51.074721027,-1.796948659,,,,,,
4600WIA11980,,"Castle Road Roundabout",,51.0762146,-1.797456001,,,,,,
4600WIA11982,,"Butts Road",,51.078120768,-1.797362041,,,,,,
4600WIA12001,,"Stratford Road Grammar School",,51.079975001,-1.798802043,,,,,,
1900HA080018,,"Cooks Lane",,50.934308378,-1.511607414,,,,,,
1900HA080015,,"Hill Street",,50.938267946,-1.516632551,,,,,,
1900HA080012,,"Golden Gutter",,50.942133184,-1.536234272,,,,,,
1900HA080009,,"Ower, Mortimer Arms",,50.947510779,-1.538543774,,,,,,
1900HA080007,,"Vine Inn",,50.952671836,-1.536129457,,,,,,
1900HAA91979,,"Blackhill Road",,50.964040944,-1.569764766,,,,,,
1900HA100150,,"Wellow Chatmohr Office Village",,50.966907194,-1.579009017,,,,,,
1900HA100153,,"West Wellow, Canada Corner",,50.968646974,-1.585230968,,,,,,
1900HAA91403,,"Hoburne Holiday Park",,50.772798937,-1.65098043,,,,,,
1900HAA91432,,"New Milton Railway Station",,50.755490073,-1.657715297,,,,,,
1900HA080782,,Bradbeers,,50.75197324,-1.654423887,,,,,,
1900HA080843,,"Old Milton Lidl",,50.746201012,-1.659773239,,,,,,
1900HA080846,,"Albany Close",,50.744877178,-1.660258763,,,,,,
1900HA080847,,"Highlands Road",,50.742640358,-1.6610686,,,,,,
1900HA080850,,"Island View Court",,50.740726934,-1.661762656,,,,,,
1900HA080851,,"Grove Road",,50.738040846,-1.662703114,,,,,,
1900HAA91777,,"Barton on Sea, Caf",,50.736007806,-1.662462635,,,,,,
1900HA080775,,"Angel Lane",,50.739469484,-1.641194536,,,,,,
1900HA080773,,"Keepers Cottage",,50.737046497,-1.634127596,,,,,,
1900HA080772,,"Taddiford Gap",,50.734458639,-1.629074847,,,,,,
1900HAA91402,,"Shorefield Holiday Park",,50.735236709,-1.617960438,,,,,,
1900HA080767,,"West Road",,50.727611824,-1.614167427,,,,,,
1900HA080765,,"Whitby Road",,50.725861486,-1.609733193,,,,,,
1900HA080763,,"Cornwallis Road",,50.724866681,-1.605392117,,,,,,
1900HA080762,,"De La Warr Road",,50.723782371,-1.601221986,,,,,,
1900HA080759,,"The Beach House",,50.724037787,-1.597040565,,,,,,
1900HAA91563,,"Needles Eye Cafe",,50.720733376,-1.588144322,,,,,,
1900HA080755,,"Lymore Vicarage",,50.728872476,-1.588342211,,,,,,
1900HA080753,,"Manor Road",,50.733374176,-1.589861457,,,,,,
1900HA080751,,"Lytton Lawn",,50.739502963,-1.58866006,,,,,,
1900HA080699,,"Everton Bus Shelter",,50.745006436,-1.586103199,,,,,,
1900HA080696,,"Otter Garden Centre",,50.744633866,-1.572556914,,,,,,
1900HA080694,,"Efford Bridge",,50.745777234,-1.568025152,,,,,,
1900HA080692,,"Haglane Copse",,50.747067666,-1.561989366,,,,,,
1900HA080689,,"Fox Pond",,50.749600131,-1.556310046,,,,,,
1900HA080687,,"Pennington Cross",,50.751045591,-1.553333788,,,,,,
1900HA080665,,"Bridge Road",,50.761677158,-1.540018423,,,,,,
1900HA080646,,"Lower Buckland, Marsh Lane",,50.767236433,-1.545068755,,,,,,
1900HA080648,,Bankview,,50.768482858,-1.54878612,,,,,,
1900HA080897,,"Holmsley, Old Station Tea Rooms",,50.806935807,-1.673064553,,,,,,
1900HA080899,,"Durmast Cross",,50.821216865,-1.68317208,,,,,,
1900HAA91405,,"Burley Queens Head",,50.826578595,-1.701053634,,,,,,
1900HA080911,,"Copse Road",,50.823460211,-1.705389418,,,,,,
1900HA080913,,"Pound Farm",,50.82142276,-1.710527121,,,,,,
1900HA080915,,"Chubbs Farm",,50.819301587,-1.714614399,,,,,,
1900HAA91778,,"Thorney Hill Crossroads",,50.799813397,-1.717769627,,,,,,
1900HAA09153,,"School Road",,50.798789145,-1.714441253,,,,,,
1900HAA09150,,"Black Lane",,50.792678277,-1.705228091,,,,,,
1900HAA19810,,"The Rising Sun",,50.785013039,-1.658512932,,,,,,
1900HAA92024,,"Bashley Village Stores",,50.774275111,-1.660599111,,,,,,
1900HA080515,,"Beaulieu Road Railway Station",,50.855252185,-1.504392113,,,,,,
1900HAA40424,,"Lyndhurst Main Car Park",,50.871491796,-1.574894499,,,,,,
1900HA080209,,"Spicers Hill",,50.909223305,-1.495570098,,,,,,
1900HA080211,,"The New Inn",,50.907036177,-1.497200863,,,,,,
1900HAA95959,,"New Forest Adventure Golf",,50.76071484,-1.52650198,,,,,,
1900HA080628,,"Hatchet Gate",,50.813448146,-1.476105673,,,,,,
1900HA080630,,"Harlicks Hill",,50.813686242,-1.459297171,,,,,,
1900HA080632,,"Bunkers Hill",,50.81437662,-1.45498832,,,,,,
1900HA080514,,"National Motor Museum",,50.824509203,-1.454543879,,,,,,
1900HA080512,,"Beaulieu Garage",,50.818196768,-1.452700989,,,,,,
1900HA080510,,"Beaulieu Church",,50.82011465,-1.449399287,,,,,,
1900HA080509,,"Beaulieu, Dock Lane",,50.820622793,-1.444665968,,,,,,
1900HAA09410,,"Exbury Gardens",,50.802633401,-1.398461041,,,,,,
1900HA080504,,"Hill Top Gate",,50.827674112,-1.431818013,,,,,,
1900HA080502,,"Hill Top Farm",,50.832062229,-1.429918803,,,,,,
1900HA080212,,"Chapel Lane",,50.906760177,-1.497843842,,,,,,
1900HA080210,,"Spicers Hill",,50.909422235,-1.495823967,,,,,,
1900HA080985,,"Ringwood, Meeting House Lane [A]",,50.847151632,-1.791260873,,,,,,
1900HA081014,,"Hurst Road",,50.854861261,-1.787973214,,,,,,
1900HA081016,,"Headlands Business Park",,50.858711576,-1.788822445,,,,,,
1900HA081017,,"Snails Lane",,50.862252,-1.788722926,,,,,,
1900HA081019,,"Blashford Lakes",,50.86909407,-1.791717241,,,,,,
1900HA081021,,"Ellingham Cross",,50.873258249,-1.792096645,,,,,,
1900HA081023,,"Ibsley Church",,50.883380122,-1.790075749,,,,,,
1900HAA13564,,"Ibsley Bridge",,50.886137184,-1.788073131,,,,,,
1900HA081026,,"Ibsley Drove",,50.890809865,-1.786217905,,,,,,
1900HAA91966,,"New Forest Water Park",,50.899741268,-1.782394498,,,,,,
1900HA081030,,"Lawrence Lane",,50.903129171,-1.781198366,,,,,,
1900HA081032,,"Whites Motors",,50.905423302,-1.781770724,,,,,,
1900HA081034,,"Gorley Nurseries",,50.909149342,-1.78329126,,,,,,
1900HA081036,,"Bickton Crossroads",,50.914117645,-1.783684996,,,,,,
1900HA081037,,"Redbrook Farm",,50.919858018,-1.787706791,,,,,,
1900HA081045,,"Waverley Road",,50.935261839,-1.786616963,,,,,,
1900HAA13776,,"Alexandra Road",,50.931665412,-1.787937711,,,,,,
1900HA081042,,"Fordingbridge, Salisbury Street",,50.928393946,-1.788905904,,,,,,
1900HA081040,,"Fordingbridge Service Station",,50.926806469,-1.786252366,,,,,,
1900HAA13572,,"Blissford Road",,50.927076353,-1.762987534,,,,,,
1900HAA13570,,"Sandy Balls",,50.930332988,-1.759271333,,,,,,
1900HAA13568,,"Well Lane",,50.932228148,-1.753882593,,,,,,
1900HAA91913,,"Godshill, Fighting Cocks",,50.933579832,-1.750972447,,,,,,
1900HA081078,,"Bramshaw Telegraph",,50.949442,-1.67729108,,,,,,
1900HA080155,,"Brook Green Dragon",,50.925586231,-1.612504838,,,,,,
1900HA080099,,"Bartley Haywain",,50.917263963,-1.562869805,,,,,,
1900HAA09172,,"Fletchwood Lane",,50.896018232,-1.533521316,,,,,,
1900HAA09170,,"Busketts Way",,50.892837735,-1.529742608,,,,,,
1900HAA91656,,"Longdown Activity Farm",,50.895250444,-1.506427799,,,,,,
1900HAA91532,,"New Forest Wildlife Park",,50.885249208,-1.499709823,,,,,,
1900HAA91655,,"Longdown Activity Farm",,50.895340966,-1.506569032,,,,,,
1900HA080906,,"Burley Coach House",,50.826752316,-1.702174168,,,,,,
1900HA080908,,"Burley Street",,50.837682764,-1.714800639,,,,,,
1900HAA91136,,"Crow Crossroads",,50.834673612,-1.769249067,,,,,,
1900HA080977,,"The Lamb",,50.842558535,-1.787418186,,,,,,
1900HA080979,,"Ringwood Council Offices",,50.843926904,-1.788249964,,,,,,
1900HA080981,,"Ringwood Medical Centre",,50.845967564,-1.787899847,,,,,,
